operator,capacity_mw,place,municipality,province,year_realized,latitude,longitude
Zonnepark Dorhout Mees B.V.,147.766,DRONTEN,Dronten,Flevoland,2022,52.41449799453784,5.681542679320759
Zonnepark Vlagtwedde B.V.,109.8504,VLAGTWEDDE,Westerwolde,Groningen,2020,52.97927169465772,7.077676005533102
Zon Noordermeerdijk B.V.,107.57439,RUTTEN,Noordoostpolder,Flevoland,2025,52.8024949518245,5.6376619627942635
BEE SP Midden Groningen B.V.,103,SAPPEMEER,Midden-Groningen,Groningen,2019,53.175119394003545,6.7703092461279235
Zonnepark Eekerweg B.V.,94.4,MEEDEN,Oldambt,Groningen,2025,53.17001494580477,6.919711238513842
BEE Stadskanaal B.V.,89.114,STADSKANAAL,Stadskanaal,Groningen,2020,53.00869810288464,6.942887331895309
Zonnepark Overbetuwe B.V.,80,ELST GLD,Overbetuwe,Gelderland,2023,51.89739484143206,5.797196640049897
Zonnepark Winterswijk Masterveldweg B.V.,73.56,WINTERSWIJK,Winterswijk,Gelderland,2024,52.01241971919823,6.776342005866824
CEE Zonnepark Fledderbosch B.V.,60.912,TEN BOER,Groningen,Groningen,2024,53.25430234258982,6.683424483267364
Zonnepark Mosselbanken Terneuzen B.V.,60,HOEK,Terneuzen,Zeeland,2022,51.34459901889684,3.738616934395226
DEPB B.V.,57.5,BOXMEER,Land van Cuijk,Noord-Brabant,2025,51.592231617124355,5.978984532400036
Energiepark Duurkenakker B.V.,56.18,MUNTENDAM,Midden-Groningen,Groningen,2020,53.14293375147869,6.892952381692916
Solar-EP III B.V.,55.364,ALMELO,Almelo,Overijssel,2024,52.38472214952796,6.6550450271175725
BEE Lelystad B.V.,55.166,LELYSTAD,Lelystad,Flevoland,2022,52.45120287516329,5.48514911545087
Solarpark Scaldia B.V.,54.783,BORSSELE,Borsele,Zeeland,2018,51.4695152271976,3.7264474670058263
Eneco Solar B.V.,54,OSSENDRECHT,Woensdrecht,Noord-Brabant,2024,51.377797997741496,4.288589148050851
Zonnepark Vloeivelden Hollandia B.V.,50.0384,NIEUW-BUINEN,Borger-Odoorn,Drenthe,2021,52.93613655886971,6.904273768084777
FP Lux REIO PV Netherlands Exloo B.V.,49.8,EXLOO,Borger-Odoorn,Drenthe,2022,52.88585722879,6.886724317857103
Zon Noordelijk Flevoland B.V.,45.647,MARKNESSE,Noordoostpolder,Flevoland,2024,52.684654660914845,5.937792179950329
Zonneakker Voorst B.V.,45.198,WILP GLD,Voorst,Gelderland,2020,52.223314894085156,6.134213985174903
Solar-EW I B.V.,43.983,CREIL,Noordoostpolder,Flevoland,2025,52.7752266562882,5.609167063752633
Zonnepark Budel B.V.,43.907,BUDEL-DORPLEIN,Cranendonck,Noord-Brabant,2018,51.240475649885106,5.611065786711741
***,43.689,ZEEWOLDE,Zeewolde,Flevoland,2023,52.3753437412026,5.6020227584898485
CEE Zonnepark Fledderbosch B.V.,42.818,TEN BOER,Groningen,Groningen,2024,53.25474529105527,6.682791447092257
Zuidbroek Energie B.V.,42.67,ZUIDBROEK,Midden-Groningen,Groningen,2022,53.17041693810831,6.844475368396422
Thijs van Oirschot Duurzaam B.V.,41.671,HILVARENBEEK,Hilvarenbeek,Noord-Brabant,2023,51.51007956554251,5.221696142261718
Zonnepark PV2 B.V.,41.1,SELLINGEN,Westerwolde,Groningen,2023,52.944511471567225,7.093734323628708
Solar-EP II B.V.,40,TERNEUZEN,Terneuzen,Zeeland,2023,51.27589979401461,3.8731518438694095
BEE Stadskanaal B.V.,39.869,BUINERVEEN,Borger-Odoorn,Drenthe,2020,52.939995239708956,6.861220612959347
Zonnepark Steenwijkerland B.V.,39.57,WANNEPERVEEN,Steenwijkerland,Overijssel,2023,52.69190810901243,6.150753046718692
Zonnepark Vloeivelden Hollandia B.V.,39.36,NIEUW-BUINEN,Borger-Odoorn,Drenthe,2021,52.9259894690413,6.917264231688276
Solarcarport Biddinghuizen B.V.,39.16,BIDDINGHUIZEN,Dronten,Flevoland,2021,52.43614048149127,5.771836804867342
Zonnepark Markiezaat B.V.,38.853,WOENSDRECHT,Woensdrecht,Noord-Brabant,2024,51.4208030636314,4.274029249575064
Vattenfall Haringvliet B.V.,37.848,MIDDELHARNIS,Goeree-Overflakkee,Zuid-Holland,2020,51.752857639806386,4.203093412704679
Zon op Bavelse Berg B.V.,37.8,BREDA,Breda,Noord-Brabant,2021,51.58425911197914,4.841146531902023
Enerstroom 2 B.V.,37.593,OOLTGENSPLAAT,Goeree-Overflakkee,Zuid-Holland,2019,51.69356994482167,4.341976287903428
Zonthermiepark Dorkwerd B.V.,37.4388,GRONINGEN,Groningen,Groningen,2024,53.251928129793484,6.519461053115848
Solarvation Edelhertweg B.V.,36.30528,LELYSTAD,Lelystad,Flevoland,2023,52.536771228275214,5.542366271934241
***,36.124,BRUMMEN,Brummen,Gelderland,2023,52.11724033221975,6.0787332303516335
Zonnepark Hooibroeken B.V.,36,HEUSDEN GEM HEUSDEN,Heusden,Noord-Brabant,2025,51.72136849761396,5.127630405592426
Zonnepark Sambeeksedijk B.V.,35,OPLOO,Land van Cuijk,Noord-Brabant,2025,51.63129213197604,5.923728049189386
Zonnepark Molenwaard B.V.,34.771,HOOGEZAND,Midden-Groningen,Groningen,2020,53.159536300215265,6.73102519943484
Tpsolar Kriekampen B.V.,34.6,OIRSCHOT,Oirschot,Noord-Brabant,2025,51.494462884144816,5.342060053563052
***,34.5,ROOSENDAAL,Roosendaal,Noord-Brabant,2021,51.56421251565012,4.4437116844359785
Zuyderzon Almere B.V.,34,ALMERE,Almere,Flevoland,2019,52.42021253582114,5.241691731665413
Zonnepark Venekoten B.V.,33.66,OOSTERWOLDE FR,Ooststellingwerf,Friesland,2020,52.96946410869197,6.305938487533194
Zonnepark Ronde Blesse B.V.,33.608,STEENWIJKERWOLD,Steenwijkerland,Overijssel,2025,52.83327517655907,6.064593992155428
Energiebedrijf Larendeel Afferden B.V.,33.5,AFFERDEN GLD,Druten,Gelderland,2025,51.87042180189242,5.62593890500136
Groot Roodehaan B.V.,33.277,GRONINGEN,Groningen,Groningen,2023,53.19744586215366,6.652986020334433
Energiepark Pottendijk B.V.,32.987,NIEUW-WEERDINGE,Emmen,Drenthe,2022,52.82102121930011,6.977232852156883
Zonnepark PV18 B.V.,32.557,HOOGEVEEN,Hoogeveen,Drenthe,2022,52.78098741496933,6.482956470941606
Zevent Zonnepark B.V.,32.4,DRUTEN,Druten,Gelderland,2025,51.86507077183614,5.572685468092677
Zonnepark PV10 B.V.,31.961,DRUTEN,Druten,Gelderland,2021,51.8770882482002,5.669255875183179
Zonnepark PV16 B.V.,31.36,LEMMER,De Fryske Marren,Friesland,2023,52.847853613911575,5.662888333644626
Solar-EP I B.V.,31.1,SLUISKIL,Terneuzen,Zeeland,2023,51.273116812354196,3.8649838492644015
Sunport Delfzijl BV,30.8,DELFZIJL,Eemsdelta,Groningen,2017,53.298079622793026,6.957714184761177
CEE Zonnepark Oranjepoort B.V.,30.681,NIEUW-DORDRECHT,Emmen,Drenthe,2018,52.74256882742628,6.955891584270542
Sunrock Assets XXX B.V.,30.6,BIDDINGHUIZEN,Dronten,Flevoland,2023,52.41800467507449,5.693763215516332
One Solar Beheer VI B.V.,30.219,VELDEN,Venlo,Limburg,2023,51.42077673381829,6.200997752378819
BEE Hoogeveen B.V.,29.702,HOOGEVEEN,Hoogeveen,Drenthe,2019,52.69700448040613,6.452894473975733
Solar Power Sas van Gent-Zuid B.V.,29.607,SAS VAN GENT,Terneuzen,Zeeland,2021,51.22083282625154,3.7927292189375255
Zonnepark Bergweg Mariahoop B.V.,29.10765,MARIA HOOP,Echt-Susteren,Limburg,2024,51.11003051929305,5.986623797185448
BEE Leek B.V.,28.597,LEEK,Westerkwartier,Groningen,2021,53.18170806867411,6.361864354026629
Zonnepark Branderwal B.V.,28.35,KOOTWIJKERBROEK,Barneveld,Gelderland,2024,52.14864561049367,5.650029882665382
Zonnepark Veenweg Ter Apel B.V.,28.18512,TER APEL,Westerwolde,Groningen,2023,52.90090587601259,7.126063735448038
BEE Stadskanaal B.V.,28.097,PESSE,Hoogeveen,Drenthe,2022,52.77970571237911,6.49063824342208
Zonnepark Apeldoorn Bloemenkamp B.V.,27.628,BEEMTE BROEKLAND,Apeldoorn,Gelderland,2021,52.274300298823896,6.022120693821569
Attero Solar Parks WM B.V.,27.6264,WIJSTER,Midden-Drenthe,Drenthe,2024,52.7880860328784,6.51758650613087
Zonnepark PV29 B.V.,27.16716,HOOGEVEEN,Hoogeveen,Drenthe,2024,52.71156694934516,6.601063688370629
Zonnepark Hollandscheveld B.V.,26.972,HOLLANDSCHEVELD,Hoogeveen,Drenthe,2024,52.712521224057404,6.5831423115959415
Bee Stadskanaal B.V.,26.923,FLUITENBERG,Hoogeveen,Drenthe,2022,52.74687602955486,6.435001170370664
Prinsen Energie B.V.,26.9,COEVORDEN,Coevorden,Drenthe,2023,52.67032026656838,6.721994024760209
Solar Power Moerdijk B.V.,26.77,MOERDIJK,Moerdijk,Noord-Brabant,2019,51.68670115279625,4.549540548660738
Zonnepark Noordermeerdijk Noord,26.39,RUTTEN,Noordoostpolder,Flevoland,2025,52.811244046213815,5.646827341595887
Zonnepark PV3 B.V.,26,ZWOLLE,Zwolle,Overijssel,2020,52.545191312065626,6.1527852876646545
Zonnepark A73 B.V.,25.932,NIJMEGEN,Nijmegen,Gelderland,2024,51.83199413521193,5.76807748010888
Zonpv Woensdrecht B.V.,25.802,WOENSDRECHT,Woensdrecht,Noord-Brabant,2024,51.41321964869199,4.267874208706547
Zonnepark Oudenhoorn B.V.,25,OUDENHOORN,Voorne aan Zee,Zuid-Holland,2024,51.82789107398196,4.174915354835182
Karakter Two Energie B.V.,24.878,GRUBBENVORST,Horst aan de Maas,Limburg,2022,51.421908762580756,6.099776903889164
Zonnepark Pekela B.V.,24.754,OUDE PEKELA,Pekela,Groningen,2023,53.11540617173631,6.98188741250472
Helios Eemshaven B.V.,24.741,EEMSHAVEN,Het Hogeland,Groningen,2021,53.44980939804896,6.797520000521359
Zonnepark Pekela B.V.,24.706,OUDE PEKELA,Pekela,Groningen,2023,53.11151652532638,6.989397650257921
Zonnepark Hemmen B.V.,24.638,VALBURG,Overbetuwe,Gelderland,2023,51.9200750755898,5.682112195341121
FP Lux REIO PV Netherlands Coevorden B.V.,24.424,COEVORDEN,Coevorden,Drenthe,2022,52.63782262866389,6.714445019935387
Zonnepark Vloeivelden Hollandia B.V.,23.216,ODOORN,Borger-Odoorn,Drenthe,2021,52.93046296109211,6.909766902344648
ZonXP Reimerswaal 2 B.V.,22.684,RILLAND,Reimerswaal,Zeeland,2024,51.42469171071249,4.238038914986425
***,22.546,ALMELO,Almelo,Overijssel,2020,52.378227458959444,6.637856756227981
KS NL7 B.V.,22.408,LOSSER,Losser,Overijssel,2021,52.24521585102114,7.057241810028481
Zonnepark Hazenwinkel B.V.,22,MIERLO,Geldrop-Mierlo,Noord-Brabant,2024,51.45525615433397,5.589067677020861
Zonnepark Energielandgoed Eelde B.V.,21.803,EELDE,Tynaarlo,Drenthe,2019,53.12809949914839,6.581411287346869
De Jong Energie B.V.,21.652,BORGER,Borger-Odoorn,Drenthe,2022,52.9158237142144,6.776992046363799
ZP Assen-Zuid B.V.,21.13588,ASSEN,Assen,Drenthe,2024,52.96646225554006,6.558593203380625
Zonnewei De Raak B.V.,21.02856,MAARHEEZE,Cranendonck,Noord-Brabant,2024,51.32062616910507,5.623444117696659
Zonnepark PV27 B.V.,21,TJALLEBERD,Heerenveen,Friesland,2023,52.96855676866368,5.879105741847283
Zonnepark Wijkerbroek B.V.,20.76,WIJK BIJ DUURSTEDE,Wijk bij Duurstede,Utrecht,2024,51.96927936612142,5.3042849490053126
Zonneweide Groetpolder B.V.,20.344,NIEUWE NIEDORP,Hollands Kroon,Noord-Holland,2022,52.77610171539697,4.930910174485188
FP Lux VB Solar Netherlands Hoogeveen B.V.,19.72,FLUITENBERG,Hoogeveen,Drenthe,2021,52.745085401427694,6.459702004910772
BEE IJsselmuiden B.V.,19.429,IJSSELMUIDEN,Kampen,Overijssel,2021,52.57947041456014,5.978988242712055
Solar Bijsterhuizen B.V.,19.135,NIJMEGEN,Nijmegen,Gelderland,2023,51.83638461857975,5.770591495074678
Zonnepark Broekstraat B.V.,18.86,KLARENBEEK,Voorst,Gelderland,2021,52.18749072637137,6.05970125643372
Zunneweide Riessen B.V.,18.546,RIJSSEN,Rijssen-Holten,Overijssel,2020,52.296904275448775,6.469747082504182
Zonnepark Havebos B.V.,18.4212,TERBORG,Oude IJsselstreek,Gelderland,2024,51.92451089893081,6.390415778675469
Solarpark Groene Hoek II B.V.,18.002,HOOFDDORP,Haarlemmermeer,Noord-Holland,2019,52.29767661604672,4.71477897482887
Zonnepark Valgenweg B.V.,17.458,DELFZIJL,Eemsdelta,Groningen,2023,53.30274906817243,7.004061443203602
KS NL5 B.V.,17.23,LOCHEM,Lochem,Gelderland,2022,52.16479189790335,6.455174711983529
Zonnepark Sluiskil B.V.,17.2,TERNEUZEN,Terneuzen,Zeeland,2023,51.28720773396388,3.821402322368813
Flevokustzon B.V.,17.13,LELYSTAD,Lelystad,Flevoland,2019,52.559766754535424,5.5238066335315885
***,17.121,ALMELO,Almelo,Overijssel,2020,52.37948595938674,6.643203736145408
FP Lux REIO PV Netherlands Schalkwijk Coöperatief U.A.,17.1,SCHALKWIJK,Houten,Utrecht,2024,51.9922179038576,5.217378224657769
Zonnepark Tholen B.V.,17,THOLEN,Tholen,Zeeland,2020,51.51589379283625,4.186251087566744
Tpsolar Schoenaker B.V.,16.857,BEUNINGEN GLD,Beuningen,Gelderland,2024,51.841652662583414,5.735422596248288
BEE Stadskanaal B.V.,16.465,ONSTWEDDE,Stadskanaal,Groningen,2022,52.98094539783922,6.988211409275393
Zonnepark Noordermeerdijk Midden,16.446,CREIL,Noordoostpolder,Flevoland,2025,52.78814087940977,5.622763452397766
Zonnepark Agger B.V.,16.37748,WOENSDRECHT,Woensdrecht,Noord-Brabant,2025,51.4218262940961,4.29261127875964
De Zonnewilg B.V.,16.3,NETTERDEN,Oude IJsselstreek,Gelderland,2025,51.86292966560277,6.329708956132407
FP Lux REIO PV Netherlands Zwolle B.V.,16.272,ZWOLLE,Zwolle,Overijssel,2021,52.459565371646335,6.122700053469914
Zonnig Eimersweg B.V.,16.259,EIBERGEN,Berkelland,Gelderland,2023,52.068876287533755,6.619639735597739
Zonnepark Houten Oostrumsdijkje B.V.,16.163,HOUTEN,Houten,Utrecht,2021,52.01467029283265,5.211044521654992
BEE Medel B.V.,16.012,ECHTELD,Neder-Betuwe,Gelderland,2022,51.917006165067974,5.484050586988386
Zonnepark Schotland B.V.,16.011,RUTTEN,Noordoostpolder,Flevoland,2025,52.80915754179186,5.644400082805917
RR SPV B.V.,16,RAALTE,Raalte,Overijssel,2025,52.424240213569234,6.339828256346591
KS NL13 B.V.,16,WEHL,Doetinchem,Gelderland,2025,51.97348418697629,6.224719735680992
Solarius Sun United B.V.,15.96075,KRUININGEN,Reimerswaal,Zeeland,2023,51.466922347225186,4.02506731532031
BEE Stadskanaal B.V.,15.773,1E EXLOERMOND,Borger-Odoorn,Drenthe,2022,52.92338996255824,6.915479600609656
Zonnepark De Mussels B.V.,15.76,BEILEN,Midden-Drenthe,Drenthe,2021,52.857803640711126,6.483487616962076
FP Lux VB Solar Netherlands Plegt-Vos B.V.,15.704,KLOOSTERHAAR,Hardenberg,Overijssel,2020,52.5161109439933,6.698482594458375
Zonnepark Hemmen B.V.,15.55,DODEWAARD,Neder-Betuwe,Gelderland,2024,51.920499449236544,5.6754707451337545
Zonnepark Wenumse Veld B.V.,15.5,APELDOORN,Apeldoorn,Gelderland,2023,52.24978088742821,5.976874020584332
Enzee B.V.,15.5,BORSSELE,Borsele,Zeeland,2020,51.437150752473485,3.716784104485672
BEE VEENDAM B.V.,15.468,VEENDAM,Veendam,Groningen,2018,53.098934299246956,6.877913792575249
Zonnepark Venekoten B.V.,15.462,OOSTERWOLDE FR,Ooststellingwerf,Friesland,2020,52.97016815648779,6.309425117454142
ATTERO Solar Parks WM B.V.,15.322,MONTFORT,Roerdalen,Limburg,2025,51.14257070594137,5.942194513436578
Tpsolar Ficary B.V.,15.309792,EWIJK,Beuningen,Gelderland,2024,51.84691425815269,5.713019439485253
Zonnepark Ter Apelkanaal B.V.,15.3,VLAGTWEDDE,Westerwolde,Groningen,2021,52.9221907433397,7.061887497690862
Zonpv Beuningen B.V.,15.282,BEUNINGEN GLD,Beuningen,Gelderland,2023,51.848729858365814,5.7495566650902825
Zonnepark Haardijk Hardenberg B.V.,15.263,HARDENBERG,Hardenberg,Overijssel,2023,52.57901301291402,6.582151188917172
Zonnepark De Wildert B.V.,15.251,DONGEN,Dongen,Noord-Brabant,2022,51.6149869129344,4.988684053317308
Zonnig Berkelland Dievelman B.V.,15.214,BORCULO,Berkelland,Gelderland,2023,52.10145046184969,6.542254980560401
BEE SP Andijk Zuid B.V.,15.124,ANDIJK,Medemblik,Noord-Holland,2018,52.737503916769874,5.228336494064372
KS NL4 B.V.,15.119,ENSCHEDE,Enschede,Overijssel,2021,52.19840258118097,6.94644168460411
Zonnepark Tynaarlo B.V.,15.072,TYNAARLO,Tynaarlo,Drenthe,2019,53.08897085389753,6.633757540310017
FP Lux REIO PV Netherlands 't Goy B.V.,15.006,'T GOY,Houten,Utrecht,2020,51.99903500009959,5.216496999874114
Zonnepark Schoorlemmer Pekela Duurzaam B.V.,15,OUDE PEKELA,Pekela,Groningen,2023,53.10876577736467,6.993630078990424
Bee Groene Hoek B.V.,14.976,HOOFDDORP,Haarlemmermeer,Noord-Holland,2018,52.30129803949357,4.720857727310011
Zonnepark Hattemerbroek B.V.,14.80512,OLDEBROEK,Oldebroek,Gelderland,2023,52.48740884936187,6.01512996787992
Solar-Ep VII B.V.,14.79,TINTE,Voorne aan Zee,Zuid-Holland,2023,51.90071890384729,4.139637046752765
innogy Solar Netherlands B.V.,14.7,KERKRADE,Kerkrade,Limburg,2021,50.84712962602899,6.014130151045104
Zonnepark Werkhoven B.V.,14.55786,WERKHOVEN,Bunnik,Utrecht,2025,52.0319065698844,5.228992354438293
Zonnepark PV1 B.V.,14.52,ZWOLLE,Zwolle,Overijssel,2020,52.48379042839282,6.141155639417811
Zonnepark Het Broek B.V.,14.5,BEUNINGEN GLD,Beuningen,Gelderland,2025,51.84063945725872,5.759523263757541
Zonnepark Hijken B.V.,14.3,HIJKEN,Midden-Drenthe,Drenthe,2021,52.88399692937615,6.5185791505587
***,14.203,MIDDELBURG,Middelburg,Zeeland,2018,51.47819115137468,3.621379489278128
Zonnig Berkelland Boksveenweg B.V.,14.154,EIBERGEN,Berkelland,Gelderland,2023,52.05913474888817,6.667190611275183
KS NL28 B.V.,14.152,NEEDE,Berkelland,Gelderland,2024,52.134700373993915,6.562222862344597
Zonnig Hoevelaken B.V.,14.146,AMERSFOORT,Amersfoort,Utrecht,2022,52.1659554680447,5.440164441561253
Solar Power Heerenveen B.V.,14.081,HEERENVEEN,Heerenveen,Friesland,2020,52.927718785375404,5.947370447058568
Zonnepark Zierikzee B.V.,14.07564,ZIERIKZEE,Schouwen-Duiveland,Zeeland,2019,51.63902579845557,3.917614860967847
Dutch Durables Energy 3 B.V.,14.073,HERNEN,Wijchen,Gelderland,2022,51.84103181858559,5.688448838177027
Zon Braambergen B.V.,14.049,ALMERE,Almere,Flevoland,2023,52.33589636445499,5.284592073792241
Twence Zon B.V.,14,ZENDEREN,Borne,Overijssel,2024,52.329491562809885,6.703334676862793
FP Lux REIO PV Netherlands Hardenberg B.V.,13.996,HOOGENWEG,Hardenberg,Overijssel,2022,52.56139268372599,6.645784855143683
Zonnepark Cothen B.V.,13.962,WIJK BIJ DUURSTEDE,Wijk bij Duurstede,Utrecht,2022,51.99188439429263,5.306220037554985
***,13.748,ONSTWEDDE,Stadskanaal,Groningen,2018,52.98282356096809,6.987394379931424
Zonnepark Lange Runde B.V.,13.669,EMMEN,Emmen,Drenthe,2018,52.74363775049328,7.032186191351053
Blue Sky Energy I B.V.,13.63,ROTTERDAM,Rotterdam,Zuid-Holland,2022,51.954817631949204,4.429821799172769
BEE 't Zunneveld B.V.,13.531,HOOGENWEG,Hardenberg,Overijssel,2022,52.579734368529856,6.657947723398901
Zonnepark de Ekers B.V.,13.527,NIJEHASKE,De Fryske Marren,Friesland,2023,52.96482404572452,5.837561244470592
Zonnepark Werkhoven B.V.,13.48415,WERKHOVEN,Bunnik,Utrecht,2024,52.0331380557353,5.228335594500661
Prosoldiga B.V.,13.468,WARMENHUIZEN,Schagen,Noord-Holland,2021,52.72716112789554,4.774214314445942
Zonnepark Duistereweg B.V.,13.41,OOSTERWOLDE FR,Ooststellingwerf,Friesland,2023,52.98933062301455,6.273195669365005
Vlowijker Zonneweide II B.V.,13.37,WERKHOVEN,Bunnik,Utrecht,2023,52.034260023318915,5.221047527267581
FP Lux VB Solar Netherlands Gennep B.V.,13.369,HEIJEN,Gennep,Limburg,2020,51.66845749982388,6.0101679348643
Twence Zon B.V.,13.34,HENGELO OV,Enschede,Overijssel,2018,52.234372877897925,6.77803535811829
Zonnepark Tichelrijt 3 B.V.,13.2,DONGEN,Dongen,Noord-Brabant,2021,51.61252571693366,4.942147653383681
Zonpv Dinteloord B.V.,13.15,DINTELOORD,Steenbergen,Noord-Brabant,2024,51.63611545644961,4.402249930760928
Zonnepark Coevorderkanaal B.V.,13.12,COEVORDEN,Coevorden,Drenthe,2022,52.63855859376978,6.721823544527378
KS NL14 B.V.,13,OPEINDE,Smallingerland,Friesland,2024,53.12039015807744,6.050618586848526
FP Lux VB Solar Netherlands Bemmel B.V.,12.995,BEMMEL,Lingewaard,Gelderland,2020,51.91423939631652,5.899695513532317
KS NL15 B.V.,12.994,KLARENBEEK,Voorst,Gelderland,2022,52.19468355406552,6.0807065265797515
FP Lux REIO PV Netherlands Zuidplas B.V.,12.993,ZEVENHUIZEN ZH,Zuidplas,Zuid-Holland,2020,52.00963120616414,4.624930091414931
Zonnig Berkelland B.V.,12.901,GEESTEREN GLD,Berkelland,Gelderland,2021,52.12831538513109,6.545435225983684
Solar Park Echteld B.V.,12.9,ECHTELD,Neder-Betuwe,Gelderland,2024,51.91001553142562,5.482474766393073
Zonnepark Munsterjansdijk B.V.,12.86,NEEDE,Berkelland,Gelderland,2023,52.12801441113922,6.650255924550744
Zonnig Lochem B.V.,12.846,GORSSEL,Lochem,Gelderland,2022,52.14843104372681,6.261248744802849
UNL Solar 18 B.V.,12.84,URETERP,Opsterland,Friesland,2022,53.116495852740286,6.173926318674455
FP Lux VB Solar Netherlands van der Wiel B.V.,12.825,NIJ BEETS,Opsterland,Friesland,2021,53.06581537820695,6.033956516390331
Energiepark Groensebos B.V.,12.8,ECHT,Echt-Susteren,Limburg,2024,51.11305505044471,5.925391738469686
Solar park Kooypunt B.V.,12.721,DEN HELDER,Den Helder,Noord-Holland,2021,52.90728074607972,4.783599001461598
Solar EGP NL East B.V.,12.5,APELDOORN,Apeldoorn,Gelderland,2025,52.20458168670588,6.022368354416083
***,12.25,VOLKEL,Maashorst,Noord-Brabant,2018,51.649848908748275,5.670223493392781
Zonnepark Noordscheschut B.V.,12.23,HOOGEVEEN,Hoogeveen,Drenthe,2020,52.71732471594401,6.541160412507338
Zonpv Cranendonck B.V.,12.222,MAARHEEZE,Cranendonck,Noord-Brabant,2024,51.31966151424566,5.594047332848474
KS NL8 B.V.,12.147,NEEDE,Berkelland,Gelderland,2024,52.120530405936904,6.616150208682676
EAM Leeuwarden B.V.,12.13,GOUTUM,Leeuwarden,Friesland,2020,53.16657356038299,5.82346810375332
Solargaard Vianen B.V.,12.09,VIANEN NB,Land van Cuijk,Noord-Brabant,2022,51.71092964571485,5.861544264018178
Zonneparken Nazorg Limburg B.V.,12.053,LANDGRAAF,Landgraaf,Limburg,2021,50.93134417927658,6.0264649833278385
Zonneparken Someren B.V.,12.00576,SOMEREN,Someren,Noord-Brabant,2023,51.344870668905536,5.6975253419171255
Solarpark Vroenhout B.V.,12,ROOSENDAAL,Roosendaal,Noord-Brabant,2025,51.53188532897997,4.418318269384506
KS NL3 B.V.,12,LOCHEM,Lochem,Gelderland,2025,52.16977549878166,6.409607412782368
Tpsolar Vossenberg B.V.,12,LIESHOUT,Laarbeek,Noord-Brabant,2025,51.55565116547177,5.547132450138924
Zonnepark Oosterweilanden B.V.,12,VRIEZENVEEN,Twenterand,Overijssel,2019,52.41019135020469,6.640535674206521
TotalEnergies Solar DG Nederland B.V.,11.99,NIEUWDORP ZLD,Borsele,Zeeland,2018,51.450399946844655,3.7335510062856447
Zonneparken Nazorg Limburg B.V.,11.92,MAASTRICHT,Maastricht,Limburg,2020,50.8712680001245,5.676304000329555
Zon Direct Groningen B.V.,11.9,GRONINGEN,Groningen,Groningen,2023,53.19732531340423,6.6498978868238305
Twence Zon B.V.,11.9,AMBT DELDEN,Hof van Twente,Overijssel,2021,52.26415656303914,6.638347589167018
Solarvation B.V.,11.893,LELYSTAD,Lelystad,Flevoland,2020,52.523360297851035,5.577438813062091
Zonneakker de Watering B.V.,11.89,COEVORDEN,Coevorden,Drenthe,2020,52.66413779459942,6.7176176634956395
Rundedal Agro Energy B.V.,11.88222,BARGER-COMPASCUUM,Emmen,Drenthe,2019,52.73718505617352,7.031481802057469
Zonnepark Achtkarspelen B.V.,11.817,BUITENPOST,Achtkarspelen,Friesland,2019,53.25998832102032,6.152035791277026
Zonnepark Rilland B.V.,11.75,RILLAND,Reimerswaal,Zeeland,2019,51.4155440945659,4.240498700182626
Zonnepark Lungendonk B.V.,11.709,SOMEREN,Someren,Noord-Brabant,2021,51.44591358032625,5.673532131051784
Zonnepark Vuilstort Farmsum B.V.,11.698,FARMSUM,Eemsdelta,Groningen,2021,53.282604295241626,6.974758422282251
Solar Power Emmen B.V.,11.68992,EMMEN,Emmen,Drenthe,2020,52.75255878907564,6.943402429178211
BEE Stadskanaal B.V.,11.573,STADSKANAAL,Stadskanaal,Groningen,2020,53.00989990885853,6.936179969322004
Karakter Three Energie B.V.,11.56,GRUBBENVORST,Horst aan de Maas,Limburg,2023,51.421732572417405,6.103522787470518
Zonnepark PV21 B.V.,11.49,DOKKUM,Noardeast-Fryslân,Friesland,2022,53.33205146676434,5.985856357340562
***,11.461,EMMELOORD,Noordoostpolder,Flevoland,2018,52.72230435475286,5.784279287064499
Zonnepark PV6 B.V.,11.442,LEEUWARDEN,Leeuwarden,Friesland,2020,53.204097705605655,5.755884887187031
Zonnepark Lievelde B.V.,11.41,LICHTENVOORDE,Oost Gelre,Gelderland,2023,52.00207702813585,6.575659804594056
Vlowijker Zonneweide I B.V.,11.259,WERKHOVEN,Bunnik,Utrecht,2023,52.036025000449825,5.226541810804836
Zonnepark Bollendonk B.V.,11.244,ETTEN-LEUR,Etten-Leur,Noord-Brabant,2023,51.60637043652644,4.625214473908398
Zonnepark Wijkerbroek Oost B.V.,11.09001,WIJK BIJ DUURSTEDE,Wijk bij Duurstede,Utrecht,2023,51.96642308883005,5.312001372838001
Zonnepark Markiezaat B.V.,11,WOENSDRECHT,Woensdrecht,Noord-Brabant,2024,51.42010379615071,4.269724938704715
FP Lux REIO PV Netherlands Exloo B.V.,10.851,ODOORN,Borger-Odoorn,Drenthe,2022,52.88404501539331,6.88839945109137
Zonneweide Roodehaan B.V.,10.82376,GRONINGEN,Groningen,Groningen,2019,53.19845377990618,6.639317864638275
Zonnepark Wilbertoord Noordstraat B.V.,10.79,MILL,Land van Cuijk,Noord-Brabant,2023,51.64098391276744,5.757894100038925
Zonnepark Loon op Zand B.V.,10.5,LOON OP ZAND,Loon op Zand,Noord-Brabant,2023,51.62096596201061,5.059205525198236
Mol Freesia B.V.,10.5,NIBBIXWOUD,Medemblik,Noord-Holland,2019,52.68752000009316,5.03693161282238
Zonnepark Waterlanden B.V.,10.247,GOOR,Hof van Twente,Overijssel,2020,52.24375913291335,6.605295463287929
Zonnepark Zonnewoud Zeewolde B.V.,10.03,ZEEWOLDE,Zeewolde,Flevoland,2024,52.34353524805691,5.502340657538076
Zonnepark Koningspleij Arnhem B.V.,10.024,ARNHEM,Arnhem,Gelderland,2022,51.96218199964882,5.944053999525365
Solarvation B.V.,10.017,LELYSTAD,Lelystad,Flevoland,2020,52.52340526884876,5.579820520222407
Zonnepark Maatweg B.V.,10,HOOGLAND,Amersfoort,Utrecht,2021,52.17236719127103,5.365349770241019
Zonnepark Woldjerspoor B.V.,10,GRONINGEN,Groningen,Groningen,2017,53.19429058873782,6.617331920992512
Enerstroom 1 B.V.,10,MELISSANT,Goeree-Overflakkee,Zuid-Holland,2019,51.773011019066296,4.035829171086255
Flevokustzon B.V.,10,LELYSTAD,Lelystad,Flevoland,2019,52.55802760951602,5.520842428891533
Bee Hoogeveen B.V.,9.88,HOOGEVEEN,Hoogeveen,Drenthe,2025,52.705949671732824,6.461124872896492
Solarvation B.V.,9.768,LELYSTAD,Lelystad,Flevoland,2020,52.520916134377266,5.580552888082401
TPSolar Berkelweide Lochem B.V.,9.675,LOCHEM,Lochem,Gelderland,2021,52.16523183126836,6.391433910341021
Zonnepark Haarstdiek B.V.,9.66,SLEEN,Coevorden,Drenthe,2021,52.76421805267231,6.796029826458463
Sun Invest 1 B.V.,9.6,LEEK,Westerkwartier,Groningen,2019,53.186605155678826,6.364100552277895
Zonnepark IJsselmeerdijk-Lelystad B.V.,9.6,LELYSTAD,Lelystad,Flevoland,2020,52.568395152195386,5.523470167481157
Zonnepark Terbroek B.V.,9.5,BARNEVELD,Barneveld,Gelderland,2024,52.16285328981661,5.497477060532469
Zonneweide De Blauwe Poort B.V.,9.5,BEEK EN DONK,Laarbeek,Noord-Brabant,2022,51.55211327772613,5.632113079228316
Zonnepark Heino I B.V.,9.497,HEINO,Raalte,Overijssel,2025,52.46024670215076,6.260275332753469
Eco Invest NH B.V.,9.36,HEERHUGOWAARD,Dijk en Waard,Noord-Holland,2018,52.68881537711854,4.843529513700938
FP Lux VB Solar Netherlands Hof van Twente B.V.,9.338,GOOR,Hof van Twente,Overijssel,2020,52.24886713496955,6.584567223892442
Zonneveld Dassenberg B.V.,9.254,HALSTEREN,Bergen op Zoom,Noord-Brabant,2023,51.557274519962135,4.296704610499554
Zonnepark Hemmen B.V.,9.25,VALBURG,Overbetuwe,Gelderland,2024,51.92002755974594,5.683555682507538
Zonnepark Wijkerbroek West B.V.,9.18,WIJK BIJ DUURSTEDE,Wijk bij Duurstede,Utrecht,2023,51.97011167275488,5.301503948383884
Zonnepark De Stegenhoek B.V.,9.16176,HAAKSBERGEN,Haaksbergen,Overijssel,2024,52.1817204189916,6.660872514380948
Zonneweide Brabantenergie 1 B.V.,9.134,SINT-OEDENRODE,Meierijstad,Noord-Brabant,2024,51.55652970414332,5.475009845442802
Zonnepark Keppelseweg B.V.,9.08523,DOETINCHEM,Doetinchem,Gelderland,2024,51.983253344990935,6.261753271756761
Zonnig Batendijk B.V.,9.052,BORCULO,Berkelland,Gelderland,2021,52.104381405523704,6.538782794668186
Zonnepark Marum B.V.,9.024,MARUM,Westerkwartier,Groningen,2018,53.13752429643393,6.279704064644611
Zonnepark Noordmanshoek B.V.,9,WIJHE,Olst-Wijhe,Overijssel,2022,52.396096881989514,6.140209872421938
W.A. Scholten Zonnepark B.V.,8.978,FOXHOL,Midden-Groningen,Groningen,2021,53.167743326388766,6.7087779317632075
Centraal Kantoor Suiker Unie,8.95,PUTTERSHOEK,Hoeksche Waard,Zuid-Holland,2021,51.811170491867095,4.5514124473664666
TPSolar Lochem B.V.,8.926,LOCHEM,Lochem,Gelderland,2020,52.1724980003029,6.450609000592462
Solarvation Runderweg B.V.,8.877,LELYSTAD,Lelystad,Flevoland,2023,52.52391101281032,5.559319517727577
Zonnepark PV24 B.V.,8.714,SINT-OEDENRODE,Meierijstad,Noord-Brabant,2024,51.58118680271252,5.426804618663002
Zonnepark de Kie B.V.,8.6702,FRANEKER,Waadhoeke,Friesland,2018,53.175999519205604,5.516925120470254
FP Lux REIO PV Netherlands Lochem-2 B.V.,8.591,LOCHEM,Lochem,Gelderland,2022,52.170661211365626,6.396052633847404
Sunland 3 B.V.,8.5,DEN HELDER,Den Helder,Noord-Holland,2021,52.91692088674141,4.78870586090969
EGP Solar Laarbeek B.V.,8.5,AARLE-RIXTEL,Laarbeek,Noord-Brabant,2023,51.52744924467814,5.655939106271774
TPSolar Bloesemlaan Zeewolde B.V.,8.47491,ZEEWOLDE,Zeewolde,Flevoland,2022,52.35303450465458,5.47996704350036
Solarpark De Mun B.V.,8.308,OSS,Oss,Noord-Brabant,2025,51.74262466216481,5.558509675944581
Zonnig Alphen aan den Rijn N11 B.V.,8.282,ALPHEN AAN DEN RIJN,Alphen aan den Rijn,Zuid-Holland,2024,52.12659863118792,4.618429499896109
Karakter Energie B.V.,8.238,HORST,Horst aan de Maas,Limburg,2022,51.423550291584434,6.101867237151386
Energiepark Pottendijk B.V.,8.02,NIEUW-WEERDINGE,Emmen,Drenthe,2022,52.823434986285704,6.976632432515304
OTTE B.V.,7.999,DALFSEN,Dalfsen,Overijssel,2023,52.538265930290116,6.265067880825523
Zonnepark Dordrecht Wieldrechtse Zeedijk B.V.,7.997,DORDRECHT,Dordrecht,Zuid-Holland,2023,51.76762936109075,4.649774237647283
Solarius Sun United B.V.,7.94,KRUININGEN,Reimerswaal,Zeeland,2023,51.467391811108946,4.022171576073548
Zonnepark Ermelo Schaapsdijk B.V.,7.846,ERMELO,Ermelo,Gelderland,2022,52.30959413286773,5.568442115552466
Zonnepark Winterswijk Arrasveldweg B.V.,7.846,WINTERSWIJK,Winterswijk,Gelderland,2021,51.9803966782115,6.694526682714022
Zonneweide Westdorperveen B.V.,7.8,WESTDORP,Borger-Odoorn,Drenthe,2022,52.89521898631426,6.759483074729944
Energiepark Pottendijk B.V.,7.7544,EMMEN,Emmen,Drenthe,2022,52.821620240807576,6.977728987729962
Zonnepark Nieuweweg B.V.,7.7,OPLOO,Land van Cuijk,Noord-Brabant,2024,51.5978608327688,5.840880516725076
Zonnepark Heino II B.V.,7.638,HEINO,Raalte,Overijssel,2025,52.46150892001062,6.255456873098805
Technique Solaire Invest 2 Nederland B.V.,7.505,REUVER,Beesel,Limburg,2024,51.26945698627775,6.081308674327772
***,7.5,DORDRECHT,Dordrecht,Zuid-Holland,2019,51.74557430317909,4.634799804154588
KS NL41 B.V.,7.401,HOOGEVEEN,Hoogeveen,Drenthe,2025,52.757600518946425,6.465618162514679
Zonnepark Geefsweer B.V.,7.303,MEEDHUIZEN,Eemsdelta,Groningen,2019,53.29999846233695,6.926101435567202
Energie Hielkema B.V.,7.3,NIJEHASKE,De Fryske Marren,Friesland,2021,52.98315286535643,5.868799353666134
***,7.285,HEERENVEEN,Heerenveen,Friesland,2020,52.97403099964043,5.907526000504196
Zonnepark Friesland B.V.,7.2,HAULERWIJK,Ooststellingwerf,Friesland,2018,53.0685672783938,6.3256500689079695
Zonnepark Emmen B.V.,7.063,ODOORN,Borger-Odoorn,Drenthe,2024,52.86496748100558,6.906711369910223
International Solar Projects IV B.V.,7.033,HERTEN,Roermond,Limburg,2020,51.167073929893384,5.957532962646575
Solarvation Edelhertweg B.V.,7.017,LELYSTAD,Lelystad,Flevoland,2023,52.536748414824494,5.541458486279862
Brilman Bathmen Duurzame Energie B.V.,7,BATHMEN,Deventer,Overijssel,2022,52.25290887049272,6.270608479790097
Brilman Bathmen Zonnepark B.V.,7,BATHMEN,Deventer,Overijssel,2022,52.25299286978847,6.273205164712212
Zonnepark Emmen B.V.,6.944,ODOORN,Borger-Odoorn,Drenthe,2024,52.86698228799626,6.903989061822642
Zonnepark PV9 B.V.,6.943,HEERENVEEN,Heerenveen,Friesland,2021,52.97031682163145,5.872076804411571
Zonnepark Eemshavendijk B.V.,6.888,EEMSHAVEN,Het Hogeland,Groningen,2020,53.43846299721327,6.846432565973321
Zonnepark Wijdemeren B.V.,6.887,'S-GRAVELAND,Wijdemeren,Noord-Holland,2020,52.27134580514656,5.11650735161491
Scheldezon B.V.,6.804,RILLAND,Reimerswaal,Zeeland,2019,51.40043319699271,4.250248154322435
Zonnepark Dorst,6.8,DORST,Oosterhout,Noord-Brabant,2024,51.58658001601731,4.843812878932899
Zonnepark PV8 B.V.,6.745,KOLLUM,Noardeast-Fryslân,Friesland,2020,53.282389999996866,6.164205000750476
Zonnepark PV6 B.V.,6.719,LEEUWARDEN,Leeuwarden,Friesland,2020,53.20622498686244,5.757088265805249
Avri Solar B.V.,6.699,GELDERMALSEN,West Betuwe,Gelderland,2018,51.867113283224306,5.326008346329583
Zonnepark Daarle B.V.,6.696,DAARLE,Hellendoorn,Overijssel,2021,52.44598194417363,6.533706166451382
Zonnepark Leemdijk B.V.,6.652,SMILDE,Midden-Drenthe,Drenthe,2020,52.93223184934575,6.41775540421397
Zonnepark Revelhorst B.V.,6.569,ZUTPHEN,Zutphen,Gelderland,2020,52.12204085141423,6.231682903584416
BEE Markelo B.V.,6.518,MARKELO,Hof van Twente,Overijssel,2021,52.25491158366805,6.530696155262676
Zonnepark Coevorden B.V.,6.5,COEVORDEN,Coevorden,Drenthe,2020,52.65700259536103,6.681501083123271
Zonne-energie Dogger B.V.,6.48,DEN HELDER,Den Helder,Noord-Holland,2020,52.93539378011885,4.75039106851907
Zon Tripkouw B.V.,6.432,OOSTWOUD,Medemblik,Noord-Holland,2020,52.72280246370828,5.079899346541756
BEE Alteveer B.V.,6.389,ONSTWEDDE,Stadskanaal,Groningen,2022,53.05705703433703,7.0007930050047165
Geova Weihoek B.V.,6.3764,ROOSENDAAL,Roosendaal,Noord-Brabant,2021,51.52368275130711,4.426983556238663
***,6.37,HEERHUGOWAARD,Dijk en Waard,Noord-Holland,2019,52.70430324373874,4.845087522132042
Havenbedrijf Moerdijk N.V.,6.23,KLUNDERT,Moerdijk,Noord-Brabant,2021,51.66474624868136,4.562766147805864
N.V. Rova Holding,6.211,RHEEZERVEEN,Hardenberg,Overijssel,2021,52.55652916974903,6.527038312088409
BEE Stadskanaal B.V.,6.177,HOOGEVEEN,Hoogeveen,Drenthe,2022,52.749083946488305,6.433004982360766
BEE Stadskanaal B.V.,6.002,BORGER,Borger-Odoorn,Drenthe,2022,52.97439694593364,6.934312031671088
Enzee B.V.,6,BORSSELE,Borsele,Zeeland,2020,51.43613647514252,3.712520692635444
Zwanendal B.V.,6,SINT MAARTENSVLOTBRUG,Schagen,Noord-Holland,2025,52.78424530866628,4.687583346265783
Zonnepark Beuningen B.V.,6,BEUNINGEN GLD,Beuningen,Gelderland,2020,51.858501000114885,5.736989000239752
Zonnepark Ameland B.V.,5.98,BALLUM,Ameland,Friesland,2015,53.4504529874044,5.674409408472661
BEE Haarweg B.V.,5.969,WAGENINGEN,Wageningen,Gelderland,2021,51.964408851199344,5.643305351652054
Zonnepark Eerbeek B.V.,5.9,EERBEEK,Brummen,Gelderland,2021,52.09831838740243,6.076872826922674
Zonneveld Best B.V.,5.855,BEST,Best,Noord-Brabant,2019,51.49251099993725,5.425237000094068
Langstraat Zon Coöperatie U.A.,5.824,WAALWIJK,Waalwijk,Noord-Brabant,2022,51.70888724443905,5.075326309542622
Zonnepark XXL B.V.,5.778,ASSEN,Assen,Drenthe,2016,52.96583944761174,6.526049952133388
Zonnepark Weststellingwerf B.V.,5.696,WOLVEGA,Weststellingwerf,Friesland,2024,52.879366511864035,5.9840781696703855
International Solar Projects IV B.V.,5.658,EEMNES,Eemnes,Utrecht,2019,52.227612782827556,5.250739476479459
***,5.616,COEVORDEN,Coevorden,Drenthe,2019,52.66415341991398,6.714942744256963
Zonnepark PV7 B.V.,5.616,DEN HAM OV,Twenterand,Overijssel,2020,52.45677299997227,6.538510000389128
Alleco Solar Energy,5.6,PURMEREND,Purmerend,Noord-Holland,2016,52.52387264097507,5.004353997930809
Zonnepark Wagenborgen B.V.,5.6,WAGENBORGEN,Eemsdelta,Groningen,2020,53.257692619694446,6.945972354802534
RWE Solar Netherlands B.V.,5.557,GEERTRUIDENBERG,Geertruidenberg,Noord-Brabant,2022,51.70921247572166,4.838200763324508
BEE Stadskanaal B.V.,5.518,BORGER,Borger-Odoorn,Drenthe,2022,52.966061566843145,6.891923027796956
Stichting de ' Griene Greide',5.5,GARYP,Tytsjerksteradiel,Friesland,2017,53.17223777842298,5.9932810824549945
Eemshaven Magnum B.V.,5.5,EEMSHAVEN,Het Hogeland,Groningen,2018,53.44997752551362,6.857967989278796
N.V. Watertransportmaatschappij Rijn-Kennemerland (W.R.K.),5.49504,NIEUWEGEIN,Nieuwegein,Utrecht,2020,52.02083712955374,5.108583004036028
Zonnepark Fort de Pol B.V.,5.487,ZUTPHEN,Zutphen,Gelderland,2020,52.163940319204514,6.1931994972292665
BEE Greenlight Ommelanderwijk B.V.,5.453,NIEUWE PEKELA,Pekela,Groningen,2020,53.071044942763926,6.9314551912600715
Zon Weert B.V.,5.38,WEERT,Weert,Limburg,2023,51.246130796480585,5.762144217512362
Zonnepark De Wildert B.V.,5.258,DONGEN,Dongen,Noord-Brabant,2022,51.61530763478953,4.991454054460306
Exploitatiemaatschappij Groen Energie B.V.,5.222,LUTTELGEEST,Noordoostpolder,Flevoland,2019,52.744109649286614,5.870475161132032
Eneco Solar B.V.,5.175,DONGEN,Dongen,Noord-Brabant,2023,51.61391599257158,4.9914024876750185
Energiepark Zwolle B.V.,5.15,ZWOLLE,Zwolle,Overijssel,2019,52.50611301977498,6.1366991708766
Solarpark Echt-Susteren B.V.,5.1,ECHT,Echt-Susteren,Limburg,2023,51.127708741894786,5.869825265698267
ZonXP Reimerswaal 1 B.V.,5.077,RILLAND,Reimerswaal,Zeeland,2024,51.42788773864593,4.211304715230599
EGP Solar Reuver B.V.,5,REUVER,Beesel,Limburg,2023,51.27352139128639,6.093607184011181
Bergumzon B.V.,4.991,BURGUM,Tytsjerksteradiel,Friesland,2018,53.21018917812831,6.032576039781052
Blitsaerd Solar B.V.,4.99,LEEUWARDEN,Leeuwarden,Friesland,2020,53.22009404770058,5.851037519875343
Eneco Solar B.V.,4.93373,SPIJKENISSE,Nissewaard,Zuid-Holland,2024,51.83524607531917,4.409513549483786
Hoogheemraadschap Hollands Noorderkwartier,4.91904,WERVERSHOOF,Medemblik,Noord-Holland,2021,52.7338372874066,5.135653035343228
Zonnepark De Grift B.V.,4.9,NIJMEGEN,Nijmegen,Gelderland,2022,51.89144038097643,5.850802361599967
***,4.849,WACHTUM,Coevorden,Drenthe,2020,52.7219382513753,6.731253793029112
Zonnepark Wolvega B.V.,4.785,WOLVEGA,Weststellingwerf,Friesland,2021,52.88294499999516,5.979455000166324
BEE Stadskanaal B.V.,4.78,BUINERVEEN,Borger-Odoorn,Drenthe,2020,52.939979189705156,6.863349070900649
Zonnepark Emmen B.V.,4.77945,EMMER-COMPASCUUM,Emmen,Drenthe,2020,52.81979453952244,6.9723128062226705
Zonneparken Someren B.V.,4.691,LIEROP,Someren,Noord-Brabant,2021,51.446297133055026,5.673498557035101
FP Lux REIO PV Netherlands Coevorden B.V.,4.627,COEVORDEN,Coevorden,Drenthe,2022,52.63679996881825,6.713504201426441
Zon Amstelwijck B.V.,4.6,DORDRECHT,Dordrecht,Zuid-Holland,2021,51.7708980950031,4.652067233219827
W.A. Scholten Zonnepark B.V.,4.55994,HOOGEZAND,Midden-Groningen,Groningen,2021,53.169187667762024,6.713588192450288
Zonnepark Friesland B.V.,4.5,APPELSCHA,Ooststellingwerf,Friesland,2018,52.937765493093835,6.355377550482508
KS NL7 B.V.,4.494,OVERDINKEL,Losser,Overijssel,2021,52.244438149950696,7.0579969131069396
Solarpark 'de Lichtkiem' B.V.,4.443,ASSEN,Assen,Drenthe,2020,53.0079335237616,6.523608651239177
Solarpark Azewijn Montferland B.V.,4.4,AZEWIJN,Montferland,Gelderland,2020,51.89059010775344,6.32627653471734
Zonnepark Apeldoorn IJsseldijk B.V.,4.395,APELDOORN,Apeldoorn,Gelderland,2021,52.19192572614141,6.043051718708063
***,4.367,STADSKANAAL,Stadskanaal,Groningen,2018,52.97402531565751,6.964012300932393
***,4.336,VENLO,Venlo,Limburg,2021,51.34307590822764,6.154394590479627
Zonnepark Friesland B.V.,4.3,APPELSCHA,Ooststellingwerf,Friesland,2018,52.941254154900534,6.356963537370432
***,4.28,WINSSEN,Beuningen,Gelderland,2023,51.88151804626032,5.679955012490742
Zonnepark Albrandswaard B.V.,4.234,RHOON,Albrandswaard,Zuid-Holland,2020,51.86512407868302,4.448011476741724
Coöperatieve Windenergie Vereniging 'Kennemerwind U.A.',4.198,BURGERBRUG,Schagen,Noord-Holland,2022,52.767019853436096,4.692657158757818
N.V. PWN Waterleidingbedrijf Noord-Holland,4.18412,ANDIJK,Medemblik,Noord-Holland,2021,52.747081335482186,5.251538964738855
BEE Stadskanaal B.V.,4.155,ODOORN,Borger-Odoorn,Drenthe,2022,52.9262073130773,6.912452577992839
Zonnepark Noordwolde B.V.,4.135,NOORDWOLDE FR,Weststellingwerf,Friesland,2018,52.8925580042054,6.150715715177071
H. Mensen Projectontwikkeling B.V.,4.067,EMMEN,Emmen,Drenthe,2021,52.80741180504929,7.018854414563805
Zonnepark Ureterp B.V.,4.061,URETERP,Opsterland,Friesland,2020,53.099414423361395,6.182835662961028
Zonnepark Oppenhuizen B.V.,4.037,OPPENHUIZEN,Súdwest-Fryslân,Friesland,2022,53.012763520142435,5.6884619321435235
De Groene Weuste B.V.,4.032,WIERDEN,Wierden,Overijssel,2018,52.37764944907866,6.600382150904912
Pure Energie ZP Onder Ons B.V.,4.024,GRAMSBERGEN,Hardenberg,Overijssel,2024,52.6473598956797,6.633487481114145
Engelen Energie B.V.,4,SOMEREN,Someren,Noord-Brabant,2022,51.361639861602974,5.699852354722035
TotalEnergies Solar DG Nederland 2 B.V.,4,ALMERE,Almere,Flevoland,2024,52.41564432313428,5.252726443377348
Zonnepark Schoorlemmer Pekela Duurzaam B.V.,4,OUDE PEKELA,Pekela,Groningen,2023,53.107537846707366,6.996177794364928
Zonnepark Schampsteeg B.V.,4,EDE,Ede,Gelderland,2025,52.06009535223,5.611845863682883
Zonnepark Holten B.V.,3.996,HOLTEN,Rijssen-Holten,Overijssel,2022,52.290820690883734,6.334476876814445
Eneco Solar B.V.,3.988,GOES,Goes,Zeeland,2021,51.488216765430145,3.858882953319134
Twence Zon B.V.,3.978,HENGELO OV,Enschede,Overijssel,2018,52.2273065452975,6.791498009657821
Zonneweide Hessenpoort B.V.,3.972,ZWOLLE,Zwolle,Overijssel,2020,52.53304652123194,6.183299314854718
Zonnepark Wolvega B.V.,3.951,WOLVEGA,Weststellingwerf,Friesland,2018,52.8825076995613,5.978066334237634
Zonnepark Apeldoorn B.V.,3.832,APELDOORN,Apeldoorn,Gelderland,2018,52.24162230159519,6.008436309837427
FP Lux VB Solar Netherlands Hoogeveen B.V.,3.79,FLUITENBERG,Hoogeveen,Drenthe,2021,52.74466399609292,6.45886948434796
Eemszon B.V.,3.75,EEMSHAVEN,Het Hogeland,Groningen,2020,53.42948795892545,6.875660520971495
***,3.745,BURGERBRUG,Schagen,Noord-Holland,2022,52.76413068329269,4.679498339532818
Zonneweide Zijp B.V.,3.7,BOEKEL,Boekel,Noord-Brabant,2020,51.60943334261405,5.687970578212026
Zonneweide Statenweg B.V.,3.7,BOEKEL,Boekel,Noord-Brabant,2020,51.6014727100243,5.693760000473937
BEE Stadskanaal B.V.,3.693,ONSTWEDDE,Stadskanaal,Groningen,2022,52.98085059002057,6.988977615684966
BEE Stadskanaal B.V.,3.671,HOOGEVEEN,Hoogeveen,Drenthe,2022,52.78167764762652,6.477130533262593
Waterschap Aa en Maas,3.67,OIJEN,Oss,Noord-Brabant,2023,51.81650229670809,5.486865306632479
Zonneweide Hessenpoort B.V.,3.65,ZWOLLE,Zwolle,Overijssel,2020,52.53407315227444,6.181166905058621
Zonnepark Koudekerke B.V.,3.6,VEERE,Veere,Zeeland,2020,51.49303136767282,3.5509244991893163
Solarvation B.V.,3.591,LELYSTAD,Lelystad,Flevoland,2020,52.520790165778976,5.57782055457174
Eco Invest FRL B.V.,3.585,LEEUWARDEN,Leeuwarden,Friesland,2018,53.185637391917496,5.752250882215002
KS NL5 B.V.,3.5,LOCHEM,Lochem,Gelderland,2022,52.16480974810524,6.4531689675473825
Zonneweide BrabantEnergie 2 B.V.,3.5,HEESWIJK-DINTHER,Bernheze,Noord-Brabant,2024,51.63615126563045,5.534213687314876
Zon Crayestein B.V.,3.479,DORDRECHT,Dordrecht,Zuid-Holland,2019,51.81840193122523,4.739891405885754
Oslo Energy Netherlands B.V.,3.469,ERMELO,Ermelo,Gelderland,2021,52.28453140049814,5.573661477138832
F&S solarfield Louisegroeve B.V.,3.373,GELEEN,Sittard-Geleen,Limburg,2019,50.9891842643551,5.800347767838594
Waterschap Limburg,3.264,VENLO,Venlo,Limburg,2018,51.38104946284837,6.154468010869437
Zonnestroominstallatie Eschmarke I B.V.,3.249,ENSCHEDE,Enschede,Overijssel,2024,52.194604958772395,6.9304527179954185
Zonnepark Koningspleij Arnhem B.V.,3.246,ARNHEM,Arnhem,Gelderland,2022,51.96210496389326,5.943535641351213
Zon Wieringermeer B.V.,3.245,MIDDENMEER,Hollands Kroon,Noord-Holland,2019,52.77159072890314,5.079941133750977
Zonnevijver Boskoop Project B.V.,3.217,BOSKOOP,Alphen aan den Rijn,Zuid-Holland,2021,52.09656054857715,4.668471389766546
Zonnepark Venekoten B.V.,3.21372,OOSTERWOLDE FR,Ooststellingwerf,Friesland,2020,52.973935104878834,6.305114880311745
EC's regio,3.146,EINDHOVEN,Eindhoven,Noord-Brabant,2018,51.44731500915494,5.395725877777127
Jutterszon B.V.,3.1032,DEN HELDER,Den Helder,Noord-Holland,2021,52.93095047650238,4.749892788100022
KS NL4 B.V.,3.1,ENSCHEDE,Enschede,Overijssel,2021,52.200413134670534,6.9421962392000856
Zonnepark PV12 B.V.,3.098,STEGEREN,Ommen,Overijssel,2020,52.543571138235116,6.483084225058443
Energy Park Veendam B.V.,3.097,VEENDAM,Veendam,Groningen,2021,53.08991233377007,6.876433939228808
Waterschap Aa en Maas,3.085,HEESWIJK-DINTHER,Bernheze,Noord-Brabant,2021,51.63737393233147,5.532091435639387
Sunrock Assets XXX B.V.,3,BIDDINGHUIZEN,Dronten,Flevoland,2023,52.42071517621847,5.691785223756271
Hoogeboom Groene Energie B.V.,2.975,WARMENHUIZEN,Schagen,Noord-Holland,2024,52.7148634966488,4.771016821212318
International Solar Projects XXIV B.V.,2.96,TILBURG,Tilburg,Noord-Brabant,2025,51.58670677502663,5.051168434808306
Zonnepark Westeinde B.V.,2.946,LEEUWARDEN,Leeuwarden,Friesland,2020,53.209017968620905,5.758316604505156
BEE Alteveer B.V.,2.94,ONSTWEDDE,Stadskanaal,Groningen,2022,53.05825639675082,6.997209546949556
EnergyStock B.V.,2.94,VEENDAM,Veendam,Groningen,2019,53.085281973138756,6.934956782713003
"Rivierenland, Waterschap",2.92,SLEEUWIJK,Altena,Noord-Brabant,2020,51.817497052516096,4.931051576236305
Zonnepark West Maas en Waal B.V.,2.917,BENEDEN-LEEUWEN,West Maas en Waal,Gelderland,2019,51.87211699010564,5.515935677586311
Stichting Waternet,2.9,NIEUWEGEIN,Nieuwegein,Utrecht,2018,52.02445278047726,5.1121180292513175
ZonXP Reimerswaal 1 B.V.,2.862,RILLAND,Reimerswaal,Zeeland,2024,51.429552113974026,4.2209672999605825
Kolksluis Solar B.V.,2.856,'T ZAND NH,Schagen,Noord-Holland,2020,52.846621582591396,4.753958976968965
Zonnepark Technopark SPV 2 B.V.,2.837,SLUIS,Sluis,Zeeland,2024,51.3580832535415,3.556058297322063
Zon Hollandse Delta B.V.,2.828,BARENDRECHT,Barendrecht,Zuid-Holland,2021,51.841617466536135,4.517429288521321
Izen Renewable Energy,2.8028,DE HEEN,Steenbergen,Noord-Brabant,2023,51.60270855826656,4.261890255570971
ZonXP Reimerswaal 1 B.V.,2.795,RILLAND,Reimerswaal,Zeeland,2024,51.432864727959426,4.197939886005
Gemeenlandshuis Delft,2.774,DEN HOORN ZH,Midden-Delfland,Zuid-Holland,2024,52.0139528507242,4.320208588820169
Zonnepark 't Boonder B.V.,2.772,STRAMPROY,Weert,Limburg,2023,51.19519144598857,5.730740497827993
Groendus Assets Holding B.V.,2.734,BARENDRECHT,Barendrecht,Zuid-Holland,2022,51.86547314413499,4.533168752100679
EGP Solar de Vlaas B.V.,2.732,DEURNE,Deurne,Noord-Brabant,2018,51.4479776365345,5.790988356936578
Zonnepark Deltahoek SPV 1 B.V.,2.73,SLUIS,Sluis,Zeeland,2024,51.389616116292636,3.5745343230937636
Zonnepark Brinkenweg Exploitatie B.V.,2.718,KLARENBEEK,Apeldoorn,Gelderland,2022,52.19269881807157,6.031611469113171
Zonnepark Apeldoorn II B.V.,2.712,APELDOORN,Apeldoorn,Gelderland,2023,52.241726594015745,6.009258361767979
Zonnepark Heikant B.V.,2.7,SOMEREN,Someren,Noord-Brabant,2024,51.37652254144993,5.690745892358369
Solargaard Vianen B.V.,2.69,VIANEN NB,Land van Cuijk,Noord-Brabant,2022,51.710657434741776,5.863743155388732
Scheldezon B.V.,2.682,RILLAND,Reimerswaal,Zeeland,2019,51.39990791770118,4.252888175415382
Zonnepark PV4 B.V.,2.67,BABBERICH,Zevenaar,Gelderland,2020,51.89954517388935,6.1260757912256585
IJssellandschap B.V.,2.65,OLST,Olst-Wijhe,Overijssel,2022,52.32968430883862,6.116075042107753
N.V. PWN Waterleidingbedrijf Noord-Holland,2.649,HOOFDDORP,Haarlemmermeer,Noord-Holland,2021,52.32779211151253,4.6612305127193245
Sun Invest 2 B.V.,2.644,SNEEK,Súdwest-Fryslân,Friesland,2021,53.02403856411382,5.663996775282622
***,2.64,VETHUIZEN,Oude IJsselstreek,Gelderland,2023,51.911340326605114,6.3142703082887985
Heibloem Hoeve B.V.,2.61,HEYTHUYSEN,Leudal,Limburg,2023,51.29852416059639,5.884472264285363
Stroomtuin B.V.,2.61,IJLST,Súdwest-Fryslân,Friesland,2020,53.01613217776878,5.6257472815180645
Fresh Trading Manufacturing B.V.,2.598,ROTTERDAM,Rotterdam,Zuid-Holland,2023,51.9661634683401,4.094485479794031
Energy Park Veendam B.V.,2.595,VEENDAM,Veendam,Groningen,2021,53.09683354581414,6.877187611459369
Oegema Materiaal B.V.,2.58,DEDEMSVAART,Hardenberg,Overijssel,2019,52.59949739803712,6.496429299069323
Stichting Future Energy Zaltbommel,2.576,ZALTBOMMEL,Zaltbommel,Gelderland,2023,51.79896021839807,5.280951533542211
Green Box Computing B.V.,2.558,WINSCHOTEN,Oldambt,Groningen,2017,53.138286491802766,7.0528529815871
Endona Torenallee B.V.,2.54334,RAALTE,Raalte,Overijssel,2022,52.38653968868908,6.25718574956159
Solarvation B.V.,2.523,LELYSTAD,Lelystad,Flevoland,2020,52.52477498539226,5.5843089959920515
Flevokustzon B.V.,2.5,LELYSTAD,Lelystad,Flevoland,2020,52.56184029939282,5.526696182533053
Sunrock Assets XII B.V.,2.5,BRUNSSUM,Brunssum,Limburg,2025,50.95764627702638,5.978143505048909
"""Energie Coöperatie De Romrijten
 U.A.""",2.495,MAARHEZE,Cranendonck,Noord-Brabant,2024,51.320042558153006,5.619120817284242
Maximazon B.V.,2.488,LELYSTAD,Lelystad,Flevoland,2018,52.57768048695514,5.531333137684182
Solarpark Emst-Epe B.V.,2.485,EMST,Epe,Gelderland,2021,52.31910364466927,5.954473360622115
Zonnepark Elzenbos B.V.,2.47752,BRUMMEN,Brummen,Gelderland,2021,52.10021421809763,6.16576179378595
FP Lux REIO PV Netherlands Zwolle B.V.,2.474,ZWOLLE,Zwolle,Overijssel,2021,52.45991933227156,6.122639944527516
Zonnepark Gasselternijveen B.V.,2.471,GASSELTE,Aa en Hunze,Drenthe,2021,52.99091723689378,6.86823160352649
CCE Solar Fields 1 NL B.V.,2.438,'S-HEER ARENDSKERKE,Goes,Zeeland,2019,51.497704000190254,3.7784049995946614
Zonnepark PV21 B.V.,2.43,DOKKUM,Noardeast-Fryslân,Friesland,2022,53.332798676716095,5.982725681583165
Zonnepark Stroe B.V.,2.421,GARDEREN,Barneveld,Gelderland,2022,52.1853374877143,5.68344377181505
Stichting de 'Leppagreide',2.4,AKKRUM,Heerenveen,Friesland,2023,53.059516878929955,5.838068936239982
Lingestroom B.V.,2.392,DIEREN,Rheden,Gelderland,2021,51.99992721262111,6.0954075787879
Zon Boekelermeer B.V.,2.382,ALKMAAR,Alkmaar,Noord-Holland,2018,52.59773661370203,4.75495293100927
***,2.369,BROEKLAND OV,Raalte,Overijssel,2021,52.37517875617396,6.2092169794349985
Green Box Computing B.V.,2.368,WINSCHOTEN,Oldambt,Groningen,2017,53.13850174208455,7.057456211670234
N.V. Slibverwerking Noord-Brabant,2.366,MOERDIJK,Moerdijk,Noord-Brabant,2019,51.68901733184986,4.576425806296845
***,2.351,BAAK,Bronckhorst,Gelderland,2021,52.07366302834688,6.221984690823188
Sun Invest 1 B.V.,2.35,LEEK,Westerkwartier,Groningen,2019,53.13860585062934,6.363773411296097
Waterschap Aa en Maas,2.335,'S-HERTOGENBOSCH,'s-Hertogenbosch,Noord-Brabant,2020,51.71898758258249,5.281467910734426
B.V. Zonnig Meeden,2.32,ZUIDBROEK,Midden-Groningen,Groningen,2020,53.1611336465452,6.888328630427505
***,2.317,LELYSTAD,Lelystad,Flevoland,2018,52.476676744326085,5.531078202942327
Enschede Energie,2.301,ENSCHEDE,Enschede,Overijssel,2023,52.194405923969555,6.918126518684395
Waterschap Limburg,2.295,HOENSBROEK,Heerlen,Limburg,2019,50.912467677369015,5.915731783176366
QSIL Nederland Holding B.V.,2.29,WINSCHOTEN,Oldambt,Groningen,2022,53.136457340308816,7.051426332323355
Zonnepark PV20 B.V.,2.289,NOORDWIJKERHOUT,Noordwijk,Zuid-Holland,2023,52.24581103540551,4.4741436613952965
Zonnig Borculo B.V.,2.284,BORCULO,Berkelland,Gelderland,2022,52.12218496637251,6.540156385651576
Hoogheemraadschap Hollands Noorderkwartier,2.2828,OOSTHUIZEN,Edam-Volendam,Noord-Holland,2023,52.58177350523862,4.993551854675715
Enschede Energie,2.256,ENSCHEDE,Enschede,Overijssel,2023,52.19457643087334,6.931267163965672
Hoogheemraadschap Hollands Noorderkwartier,2.2428,ALKMAAR,Alkmaar,Noord-Holland,2023,52.6452358835412,4.739370385220478
Groendus Assets Holding B.V.,2.232,BELTRUM,Oost Gelre,Gelderland,2018,52.065492765922414,6.610316078553835
Waterschap Vallei en Veluwe,2.23145,HARDERWIJK,Harderwijk,Gelderland,2022,52.35829234115609,5.632589107658808
Beekers Energy B.V.,2.227,MADE,Drimmelen,Noord-Brabant,2022,51.67839550463297,4.823972392466914
Zonnepark Aa-stroom B.V.,2.218,OUDE PEKELA,Pekela,Groningen,2020,53.10274364773694,7.024229883171805
Stichting Wimani,2.188,STRAMPROY,Weert,Limburg,2023,51.1913976267764,5.70282763983143
Zonnepark Reuver B.V.,2.187,BEESEL,Beesel,Limburg,2023,51.272381969372795,6.091357608318282
Zonnepark West Maas en Waal B.V.,2.187,BENEDEN-LEEUWEN,West Maas en Waal,Gelderland,2019,51.8726519285231,5.499879673793435
Solarpark Galecop B.V.,2.187,NIEUWEGEIN,Nieuwegein,Utrecht,2018,52.06034647839456,5.079878675112114
EnergyPortPeelland,2.186,DEURNE,Deurne,Noord-Brabant,2018,51.44928186198129,5.7917936015603395
Photovoltaic Power Plant 5 B.V.,2.18,PUTTERSHOEK,Hoeksche Waard,Zuid-Holland,2021,51.8094155996616,4.553366003017828
Photovoltaic Power Plant 2 B.V.,2.18,PUTTERSHOEK,Hoeksche Waard,Zuid-Holland,2021,51.809335195310084,4.5486078977554705
Photovoltaic Power Plant 3 B.V.,2.18,PUTTERSHOEK,Hoeksche Waard,Zuid-Holland,2021,51.80932987514493,4.55033338041418
Photovoltaic Power Plant 4 B.V.,2.18,PUTTERSHOEK,Hoeksche Waard,Zuid-Holland,2021,51.809375162634616,4.551645214237286
Photovoltaic Power Plant 6 B.V.,2.18,PUTTERSHOEK,Hoeksche Waard,Zuid-Holland,2021,51.80796001265032,4.549638663747662
Zonnepark De Rietstap B.V.,2.178,DINXPERLO,Aalten,Gelderland,2020,51.860246050249266,6.47351449739639
Hooghweg Energy B.V.,2.175,BUINEN,Borger-Odoorn,Drenthe,2021,52.93493470398612,6.849149403718832
Zonnepark Korenstreep Veghel B.V.,2.116,VEGHEL,Meierijstad,Noord-Brabant,2019,51.637990472817485,5.56537191956072
RWE Solar Netherlands B.V.,2.102,GEERTRUIDENBERG,Geertruidenberg,Noord-Brabant,2021,51.708561846167484,4.842788243323568
Zonnebult Leeuwarden-west B.V.,2.09216,LEEUWARDEN,Leeuwarden,Friesland,2023,53.20011172292972,5.758704716981537
Zonnepark Vierverlaten B.V.,2.09,GRONINGEN,Groningen,Groningen,2017,53.21496108671183,6.484242243758857
Sunrock Assets XII B.V.,2.08,KERKRADE,Kerkrade,Limburg,2020,50.869603714443365,6.036438503549406
Hooghweg Energy B.V.,2.07,BUINEN,Borger-Odoorn,Drenthe,2021,52.93514797803265,6.852998880616444
Photovoltaic Power Plant 7 B.V.,2.07,PUTTERSHOEK,Hoeksche Waard,Zuid-Holland,2021,51.8079576952363,4.551377041691364
"Rivierenland, Waterschap",2.052,ARNHEM,Arnhem,Gelderland,2019,51.96517715007637,5.85487263608091
Zonneparken Leudal Energie B.V.,2.05,NUNHEM,Leudal,Limburg,2024,51.239050420416554,5.962554361530475
't Oerlegoed B.V.,2.03264,GENDRINGEN,Oude IJsselstreek,Gelderland,2020,51.86097553580945,6.349183287813842
Zonnepark Entersestraat B.V.,2.029,GOOR,Hof van Twente,Overijssel,2020,52.24992548910411,6.590639472596426
Veendam Square B.V.,2.019,VEENDAM,Veendam,Groningen,2019,53.09376999967292,6.875882999513528
Waterschap Vechtstromen,2.011,DEDEMSVAART,Hardenberg,Overijssel,2021,52.59579400149553,6.494346371845724
Landbouwbedrijf Kloosterman B.V.,2.00013,NIEUWEROORD,Midden-Drenthe,Drenthe,2019,52.74828750491477,6.584914148989372
Waterschap Aa en Maas,2,AARLE-RIXTEL,Laarbeek,Noord-Brabant,2022,51.50570023044542,5.6627816385045495
Brilman Bathmen Zonnepark B.V.,2,BATHMEN,Deventer,Overijssel,2022,52.25248614841299,6.267539776712813
***,2,VIERLINGSBEEK,Land van Cuijk,Noord-Brabant,2023,51.60042505248624,5.986706377125629
Brilman Bathmen Duurzame Energie B.V.,2,BATHMEN,Deventer,Overijssel,2022,52.25310662530689,6.276234323506952
Zonnepark Friesland B.V.,2,DONKERBROEK,Ooststellingwerf,Friesland,2018,53.01510831819125,6.245401796685004
Zonnepark Friesland B.V.,2,APPELSCHA,Ooststellingwerf,Friesland,2018,52.93900109197766,6.356766020979323
Vattenfall Power Generation Netherlands B.V.,2,VELSEN-NOORD,Velsen,Noord-Holland,2018,52.471956798216794,4.6304028072258125
Eneco Solar B.V.,2,HOEK,Terneuzen,Zeeland,2018,51.29467251385459,3.748772188462201
Sunwatt De Kwekerij B.V.,1.988,HENGELO GLD,Bronckhorst,Gelderland,2016,52.05817725623068,6.30917111146216
ESK Solar B.V.,1.95,HARLINGEN,Harlingen,Friesland,2020,53.180820039704216,5.459598336043801
"Rivierenland, Waterschap",1.95,DRONGELEN,Altena,Noord-Brabant,2021,51.723932533635775,5.055350237210319
Energiepark Pottendijk B.V.,1.9386,EMMEN,Emmen,Drenthe,2022,52.821205298865195,6.974188482310906
Avri Solar B.V.,1.933,GELDERMALSEN,West Betuwe,Gelderland,2018,51.865897994093494,5.326570994093921
Zonnepark Hattemerbroek B.V.,1.928797,HATTEMERBROEK,Oldebroek,Gelderland,2023,52.48715295463428,6.015853678384457
Hoogheemraadschap Hollands Noorderkwartier,1.91808,SCHAGERBRUG,Schagen,Noord-Holland,2019,52.80710107382697,4.734301838157243
N.V. PWN Waterleidingbedrijf Noord-Holland,1.91661,ANDIJK,Medemblik,Noord-Holland,2021,52.7472718843534,5.257139215911385
Enkhuizer Koekfabriek B.V.,1.903,ENKHUIZEN,Enkhuizen,Noord-Holland,2025,52.7194423837994,5.2804611865389575
Engelen Energie B.V.,1.888,SOMEREN,Someren,Noord-Brabant,2022,51.361481375727685,5.701957049155857
Endona Projecten B.V.,1.8468,HEETEN,Raalte,Overijssel,2018,52.335316784239915,6.287339984909104
Drijvend Zonnepark Lingewaard B.V.,1.845,BEMMEL,Lingewaard,Gelderland,2018,51.926395650871626,5.902476932166131
Manoir Solar B.V.,1.8112,VARSSELDER,Oude IJsselstreek,Gelderland,2020,51.89435210444893,6.342984869777417
Zonnebult Leeuwarden-west B.V.,1.80864,LEEUWARDEN,Leeuwarden,Friesland,2023,53.19851229300996,5.759236561831152
BEE Stadskanaal B.V.,1.806,BORGER,Borger-Odoorn,Drenthe,2022,52.975118931928144,6.93320287307112
Peter Reijnen Beheer B.V.,1.803,REUVER,Beesel,Limburg,2022,51.27629394276295,6.065230438783507
"Hoogheemraadschap Amstel, Gooi en Vecht",1.803,NEDERHORST DEN BERG,Wijdemeren,Noord-Holland,2019,52.256928480384026,5.088480601267779
Zonnepark Enschede B.V.,1.8,ENSCHEDE,Enschede,Overijssel,2025,52.22741259458407,6.930178817824239
***,1.8,WIERINGERWERF,Hollands Kroon,Noord-Holland,2021,52.8387453102241,5.0645545727097145
De ZonneWIJde B.V.,1.78,BREDA,Breda,Noord-Brabant,2017,51.59871100949249,4.746824243988624
Vattenfall Samen in Zon B.V.,1.761,AMSTERDAM,Amsterdam,Noord-Holland,2019,52.40498970221887,4.850441080642887
Zonnepark Knook B.V.,1.746,KLOOSTERBUREN,Het Hogeland,Groningen,2020,53.40580568982285,6.378144455252396
Twence Zon B.V.,1.728,HENGELO OV,Enschede,Overijssel,2017,52.22579332824939,6.796823499829902
Gemeente Amsterdam,1.728,AMSTERDAM,Amsterdam,Noord-Holland,2020,52.30366128585342,5.007728230931632
Waterschap Drents Overijsselse Delta,1.7,DEVENTER,Deventer,Overijssel,2023,52.27317323337524,6.127113080720642
Waterschap Limburg,1.68,SUSTEREN,Echt-Susteren,Limburg,2019,51.05985740613783,5.835368241839394
Hoogheemraadschap Hollands Noorderkwartier,1.666,MIDDENMEER,Hollands Kroon,Noord-Holland,2019,52.83311644469606,5.0223295999084465
Zonnepark Ketelsteeg Zaltbommel B.V.,1.66,ZALTBOMMEL,Zaltbommel,Gelderland,2021,51.816738514000136,5.276224992325395
Solar Bocholtz B.V.,1.654,SIMPELVELD,Simpelveld,Limburg,2020,50.82054655038897,6.018012136679863
Zonnepark Noordveen B.V.,1.65,ZUTPHEN,Zutphen,Gelderland,2018,52.15567785385941,6.211231892824513
Coöperatie ValleiEnergie Meikade-Zon U.A.,1.649,EDE GLD,Ede,Gelderland,2022,52.04681481231961,5.609461264814926
Zonnepark Doorsneeweg B.V.,1.64808,NIEUWE PEKELA,Pekela,Groningen,2023,53.07098495287218,6.936139733266793
Waterschap Aa en Maas,1.637,AARLE-RIXTEL,Laarbeek,Noord-Brabant,2022,51.5089118855445,5.661423666568427
Coöperatie Reindonk Energie U.A.,1.636,GRIENDTSVEEN,Horst aan de Maas,Limburg,2022,51.443534004746795,5.897557096567954
Zonnestroominstallatie Eschmarke I B.V.,1.635,ENSCHEDE,Enschede,Overijssel,2024,52.19441578381035,6.917382880452926
Zonnepark Exploitatie I B.V.,1.632,BIEZENMORTEL,Tilburg,Noord-Brabant,2019,51.61819887597741,5.188793173113906
Zonnepark A73 B.V.,1.628,NIJMEGEN,Nijmegen,Gelderland,2024,51.83023051386018,5.765953165682063
Polycultuur Zonnepark De Mikkelhorst B.V.,1.62,HAREN GN,Groningen,Groningen,2021,53.18145505907857,6.623766858120047
Zonnepark Reuver B.V.,1.605,ONSTWEDDE,Stadskanaal,Groningen,2023,53.01671839826688,6.908929116395889
Sunrock Assets XI B.V.,1.6049,SCHINVELD,Beekdaelen,Limburg,2022,50.973240035481226,5.972472693716794
"Coöperatieve Vereniging ""Lutten Levert"" U.A.",1.6,LUTTEN,Hardenberg,Overijssel,2020,52.61075252657579,6.551404910480784
Zonneweide Glimmen,1.598,GLIMMEN,Groningen,Groningen,2021,53.13147751693092,6.630729200161632
Waterschap Aa en Maas,1.577,'S-HERTOGENBOSCH,'s-Hertogenbosch,Noord-Brabant,2020,51.71874441434414,5.280537701770015
Hoogheemraadschap Hollands Noorderkwartier,1.55008,WARMENHUIZEN,Schagen,Noord-Holland,2021,52.69572420851436,4.733106214414408
Green Box Computing B.V.,1.547,WINSCHOTEN,Oldambt,Groningen,2017,53.13538432455435,7.053080394532806
Havenbedrijf Moerdijk N.V.,1.547,ZEVENBERGEN,Moerdijk,Noord-Brabant,2021,51.661015363955464,4.5593082443238595
Zon Hollandse Delta B.V.,1.546,ZWIJNDRECHT,Zwijndrecht,Zuid-Holland,2021,51.813706102844435,4.5780096307859655
Wetterskip Fryslân,1.535,BROEK FR,De Fryske Marren,Friesland,2021,52.972114514369615,5.7633844970275545
Zonnepark Nieuwendijk B.V.,1.516,WERKENDAM,Altena,Noord-Brabant,2022,51.764629850136004,4.926369257473246
Zonnepark 't Oor Den Haag B.V.,1.516,'S-GRAVENHAGE,'s-Gravenhage,Zuid-Holland,2020,52.083095238205075,4.351057445444957
Hoogheemraadschap van Rijnland,1.505,KATWIJK ZH,Katwijk,Zuid-Holland,2018,52.20508193119306,4.440752289173987
De Groene Weuste B.V.,1.5,WIERDEN,Wierden,Overijssel,2021,52.37713985048745,6.597852531211766
Rooftop Energy B.V.,1.5,VELDHOVEN,Veldhoven,Noord-Brabant,2019,51.43205469212516,5.379108310553774
Zonnepark Molenbosch B.V.,1.5,OLDEBERKOOP,Ooststellingwerf,Friesland,2021,52.942303850119664,6.11540568426353
Hoogheemraadschap Hollands Noorderkwartier,1.49296,URSEM,Koggenland,Noord-Holland,2023,52.63493658954102,4.886048501370444
Pure Energie Zon – Hazerswoude B.V.,1.42227,HAZERSWOUDE-DORP,Alphen aan den Rijn,Zuid-Holland,2019,52.09024554271445,4.62440689205398
Wetterskip Fryslân,1.409,DRACHTEN,Smallingerland,Friesland,2020,53.112978634693,6.060311033890175
Rooftop Energy B.V.,1.407,HEERENVEEN,Heerenveen,Friesland,2021,52.93795797449646,5.956568031498796
Zonnepark Waalre B.V.,1.4,WAALRE,Waalre,Noord-Brabant,2020,51.38754796528956,5.436354498531908
Wetterskip Fryslân,1.392,LEEUWARDEN,Leeuwarden,Friesland,2020,53.19399452144655,5.827288206026974
HMO,1.388,ZWOLLE,Raalte,Overijssel,2021,52.38787162308476,6.285834181898022
Oosterhoutste Nieuwe Energie Coöperatie U.A. (ONE),1.36,DORST,Oosterhout,Noord-Brabant,2024,51.586580016297916,4.845626052265077
Nuon Power Generation B.V.,1.34,DIEMEN,Diemen,Noord-Holland,2020,52.3394653368372,5.023405075901141
Zonnepark de Kie B.V.,1.3318,FRANEKER,Waadhoeke,Friesland,2018,53.17488579602828,5.5137685503689475
Lingesolar B.V.,1.331,ECHTELD,Buren,Gelderland,2017,51.92255682119141,5.4716030754927365
FP Lux REIO PV Netherlands Lochem-2 B.V.,1.33,LOCHEM,Lochem,Gelderland,2022,52.17190976132818,6.394224517064394
Zon Hollandse Delta B.V.,1.33,MIDDELHARNIS,Goeree-Overflakkee,Zuid-Holland,2021,51.770331657695756,4.177573821564617
"Rivierenland, Waterschap",1.306,DODEWAARD,Neder-Betuwe,Gelderland,2020,51.92068078192358,5.632698152257871
Zonnepark Emmen B.V.,1.3,EMMER-COMPASCUUM,Emmen,Drenthe,2021,52.8165599557787,6.975304778927479
"Hoogheemraadschap Amstel, Gooi en Vecht",1.2996,AMSTERDAM,Amsterdam,Noord-Holland,2020,52.39867418978603,4.776798396785351
Solarvation B.V.,1.27428,LELYSTAD,Lelystad,Flevoland,2020,52.52306681406591,5.583881359498761
"Hoogheemraadschap Amstel, Gooi en Vecht",1.269,AMSTELVEEN,Amstelveen,Noord-Holland,2020,52.314799408866776,4.892358315819261
Zonnepark De Bocht B.V.,1.25,DIEREN,Rheden,Gelderland,2023,52.05131591656595,6.107558010849197
"Rivierenland, Waterschap",1.246,CULEMBORG,Culemborg,Gelderland,2022,51.94002256364253,5.23750164898307
Waterschap Limburg,1.245,MAASTRICHT,Maastricht,Limburg,2018,50.87245787139486,5.704566809930873
Wetterskip Fryslân,1.238,GORREDIJK,Opsterland,Friesland,2021,53.01147064726374,6.054991231902913
Zonnepark De Vrie Heerlykheyd B.V.,1.2,BEDUM,Het Hogeland,Groningen,2022,53.31019953437744,6.582259746529106
Zonnepark Drenthe B.V.,1.2,2E EXLOERMOND,Borger-Odoorn,Drenthe,2016,52.908477770065716,6.943097323650401
Netterden Zand en Grind B.V.,1.198,GENDRINGEN,Oude IJsselstreek,Gelderland,2020,51.877362889991545,6.3380151649487715
Hoogheemraadschap Hollands Noorderkwartier,1.18216,ZUIDOOSTBEEMSTER,Purmerend,Noord-Holland,2021,52.518091024019334,4.9127357280803245
Solarvation B.V.,1.18104,LELYSTAD,Lelystad,Flevoland,2020,52.52315930572644,5.58527858554015
ZutphenEnergie/Zonnestroom Zutphen,1.146,ZUTPHEN,Zutphen,Gelderland,2020,52.12110767836554,6.229724383904995
WeertEnergie,1.138,WEERT,Weert,Limburg,2018,51.22070205987397,5.687446697079164
Zonnepark A15 Geldermalsen B.V.,1.13076,GELDERMALSEN,West Betuwe,Gelderland,2021,51.861427999677254,5.3133149998730875
BEE Stadskanaal B.V.,1.118,BORGER,Borger-Odoorn,Drenthe,2022,52.967539848387766,6.890782475781771
Hoogheemraadschap Hollands Noorderkwartier,1.085,DE KOOG,Texel,Noord-Holland,2019,53.07665770264507,4.773451799421007
Zonnepark Wijkerbroek West B.V.,1.067936,WIJK BIJ DUURSTEDE,Wijk bij Duurstede,Utrecht,2025,51.969343028127234,5.301919547306873
Coöperatie VlielandEnergie U.A.,1.0304,VLIELAND,Vlieland,Friesland,2018,53.254404449765374,4.943117591153506
Marrewijk Amaryllis B.V.,1.02872,DE LIER,Westland,Zuid-Holland,2023,51.98194840098654,4.293535796173764
Gemeente Nunspeet,1.023,NUNSPEET,Nunspeet,Gelderland,2022,52.36972219234537,5.759717600027931
H. Mensen Projectontwikkeling B.V.,1.022,EMMEN,Emmen,Drenthe,2021,52.8074571848655,7.018854412625365
ENGIE Energie Zonnepark Harculo B.V.,1.01,ZWOLLE,Zwolle,Overijssel,2015,52.46974653668814,6.113278546337623
Zon op Kralingen B.V.,1.005,ROTTERDAM,Rotterdam,Zuid-Holland,2020,51.906104409753866,4.53234182725181
Twence Zon B.V.,1,HENGELO OV,Enschede,Overijssel,2017,52.22631174743368,6.797581615126537
H.J. Boontjes Kip B.V.,1,NIEUW ANNERVEEN,Aa en Hunze,Drenthe,2018,53.06457230892959,6.782586137878504
Zonnepark Molenbosch B.V.,0.999999,OLDEBERKOOP,Ooststellingwerf,Friesland,2021,52.9428263423156,6.114720231137437
***,0.999995,MOERGESTEL,Oisterwijk,Noord-Brabant,2023,51.52235600691861,5.169120507522032
Solar Rijssen B.V.,0.9999,RIJSSEN,Rijssen-Holten,Overijssel,2020,52.301398665384355,6.48959537728945
Nieuwland Solar B.V.,0.999,LUTTELGEEST,Noordoostpolder,Flevoland,2021,52.75437412668427,5.838494161328654
***,0.999,VIERLINGSBEEK,Land van Cuijk,Noord-Brabant,2021,51.59132431963986,5.989756317269995
***,0.999,ZELHEM,Bronckhorst,Gelderland,2023,52.00162723561924,6.3046147997631605
P.A.J. van Gog Holding B.V.,0.999,VENHORST,Boekel,Noord-Brabant,2025,51.60130459695777,5.7336638504491875
***,0.999,WOENSDRECHT,Woensdrecht,Noord-Brabant,2025,51.42632515411382,4.29098578101868
***,0.999,MOERGESTEL,Oisterwijk,Noord-Brabant,2024,51.5203369889629,5.166368548675661
LontZon B.V.,0.999,ST.-ANNAPAROCHIE,Waadhoeke,Friesland,2019,53.26659830639869,5.664907186646702
Gemeente Steenwijkerland,0.999,OLDEMARKT,Steenwijkerland,Overijssel,2020,52.822408929265535,5.965576211643723
Solarvation B.V.,0.99619,LELYSTAD,Lelystad,Flevoland,2022,52.521236498317826,5.5853354908301425
Verhage Vastgoed B.V.,0.9961,KAPELLE,Kapelle,Zeeland,2022,51.46910451101993,3.947810022561854
Hoogheemraadschap van Schieland en de KR.WRD,0.996,KRIMPEN AAN DE LEK,Krimpenerwaard,Zuid-Holland,2023,51.897267082748385,4.598829563577205
AGEM Gemeentelijke Energie B.V.,0.994,BRAAMT,Montferland,Gelderland,2022,51.92287207089031,6.267186536698384
Enzerink Energie B.V.,0.994,ZELHEM,Bronckhorst,Gelderland,2023,52.00991352182845,6.333530893399656
Eneco Solar B.V.,0.992,GOES,Goes,Zeeland,2021,51.488218401833684,3.860353245794235
Waterschap Scheldestromen,0.992,RITTHEM,Vlissingen,Zeeland,2022,51.44461658926887,3.613375685908297
AnJa Solar B.V.,0.99,ENS,Noordoostpolder,Flevoland,2022,52.62629847085269,5.836805071524036
Coöperatieve Vereniging WeertEnergie U.A.,0.986,WEERT,Weert,Limburg,2019,51.22102889289325,5.687078646458876
Avéro Achmea,0.98,APELDOORN,Apeldoorn,Gelderland,2020,52.175700123164965,5.964720112039366
Hoogheemraadschap van Rijnland,0.98,BODEGRAVEN,Bodegraven-Reeuwijk,Zuid-Holland,2023,52.08292837223722,4.73651971479494
Hoogheemraadschap Hollands Noorderkwartier,0.9792,ZAANDAM,Zaanstad,Noord-Holland,2022,52.430672945826664,4.8597334376183055
Wetterskip Fryslân,0.97664,WALTERSWALD,Dantumadiel,Friesland,2020,53.27619725612201,6.031267133781505
ENGIE Energie Zonnepark Nijmegen B.V.,0.97632,NIJMEGEN,Nijmegen,Gelderland,2019,51.85615185727861,5.833211734466678
Zonne-energie Dogger B.V.,0.969,DEN HELDER,Den Helder,Noord-Holland,2020,52.93418278820586,4.749858502008234
Coöperatie Wijnjewoude Energie Neutraal U.A.,0.965,WIJNJEWOUDE,Opsterland,Friesland,2023,53.04800159405916,6.197470438718877
Waterschap Aa en Maas,0.962,VINKEL,'s-Hertogenbosch,Noord-Brabant,2021,51.702428995105116,5.448975840111663
Reggestroom B.V.,0.96,OMMEN,Ommen,Overijssel,2021,52.53880083939662,6.404797610975204
Zonnepark Harlingen B.V.,0.954,HARLINGEN,Harlingen,Friesland,2018,53.180497768450934,5.461291060122384
Zonnepark Gansenwoirt II Duiven B.V.,0.954,DUIVEN,Duiven,Gelderland,2018,51.97452060361867,6.009151574789603
***,0.95,WIERINGERWERF,Hollands Kroon,Noord-Holland,2020,52.838919408793224,5.049707695308693
Enschede Energie,0.947,ENSCHEDE,Enschede,Overijssel,2023,52.20417793246462,6.920063182405108
Dutch Berries Beheer B.V.,0.9462,ZUILICHEM,Zaltbommel,Gelderland,2024,51.8032867276689,5.14882798144711
Eneco Solar B.V.,0.93555,WAALWIJK,Waalwijk,Noord-Brabant,2017,51.70776159776417,5.075864355691955
Waterschap Vechtstromen,0.932,COEVORDEN,Coevorden,Drenthe,2021,52.64179263966506,6.718999766592672
Waterschap Drents Overijsselse Delta,0.929,HOOGEVEEN,Hoogeveen,Drenthe,2021,52.71035444535659,6.413630128722647
Zonnepark Halo Langelo B.V.,0.92,LANGELO DR,Noordenveld,Drenthe,2020,53.0895097132539,6.428739398688639
Zonnepark Gansenwoirt I Duiven B.V.,0.912,DUIVEN,Duiven,Gelderland,2018,51.96992487564948,6.015791246407408
***,0.91,LEEUWARDEN,Leeuwarden,Friesland,2018,53.19062160496989,5.757814804542703
"Hoogheemraadschap Amstel, Gooi en Vecht",0.89856,UITHOORN,Uithoorn,Noord-Holland,2020,52.24056617219563,4.8309094566855615
Stichting Waternet,0.88565,NEDERHORST DEN BERG,Wijdemeren,Noord-Holland,2018,52.257150634190594,5.088554988013383
Technique Solaire Invest 1 Nederland B.V.,0.869,SAPPEMEER,Midden-Groningen,Groningen,2021,53.169559579838825,6.790685731016798
Waterschap Vechtstromen,0.868,ALMELO,Almelo,Overijssel,2021,52.34275145204353,6.6247618166023745
Goed Veur Mekare,0.86,WIJHE,Olst-Wijhe,Overijssel,2022,52.39607252798806,6.140991226243595
Sweco Nederland,0.857,BREDA,Breda,Noord-Brabant,2025,51.58648807251367,4.835146634329452
"Rivierenland, Waterschap",0.855,HANK,Altena,Noord-Brabant,2021,51.73220662004337,4.928715549412119
Waterschap Aa en Maas,0.848,HAPS,Land van Cuijk,Noord-Brabant,2023,51.69522085859927,5.895617946727773
Nieuwland Solar B.V.,0.842,LUTTELGEEST,Noordoostpolder,Flevoland,2021,52.75474357860896,5.837667115957892
Waterschap Vechtstromen,0.84096,OLDENZAAL,Oldenzaal,Overijssel,2020,52.31105044000209,6.893339962599515
Waterschap Rivierenland,0.84,WIJK EN AALBURG,Altena,Noord-Brabant,2020,51.75299828160316,5.12301532162512
Waterschap Limburg,0.836,ROERMOND,Roermond,Limburg,2019,51.22089586725654,5.986216966545735
Hoogheemraadschap Hollands Noorderkwartier,0.83,HEILOO,Heiloo,Noord-Holland,2020,52.59455695673021,4.720568563648109
NUON Duurzame Energie,0.82,ALMERE,Almere,Flevoland,2022,52.37753073519372,5.300620098684662
Zonnepark Grunneger Power Meerdorpen B.V.,0.82,GRONINGEN,Groningen,Groningen,2021,53.198630731331335,6.642747338837474
Wetterskip Fryslân,0.817,MOLKWERUM,Súdwest-Fryslân,Friesland,2021,52.88485056361757,5.395284022623817
Waterschap Limburg,0.81,MAASTRICHT,Maastricht,Limburg,2019,50.81599972463118,5.714012166551423
Sunprojects,0.8,ALMERE,Zeewolde,Flevoland,2019,52.38084390624488,5.302752505700577
Zonneweide Bergen B.V.,0.8,BERGEN NH,Bergen (NH),Noord-Holland,2017,52.658528486763956,4.720299268700547
Trayplant Onroerend Goed B.V.,0.777,MOLENSCHOT,Gilze en Rijen,Noord-Brabant,2022,51.55336331460596,4.892636813691234
Waterschap Vallei en Veluwe,0.767,NIJKERK GLD,Nijkerk,Gelderland,2021,52.230820958132036,5.473016104385629
CJ Onroerend Goed B.V.,0.766,GAMEREN,Zaltbommel,Gelderland,2023,51.79792289916359,5.176039944957068
Waterschap Limburg,0.764,LANDGRAAF,Landgraaf,Limburg,2019,50.920060660551414,6.093449529417049
Wetterskip Fryslân,0.761,WOLVEGA,Weststellingwerf,Friesland,2020,52.88738601568668,5.989771217279706
Voorne Putten Energie,0.759,TINTE,Voorne aan Zee,Zuid-Holland,2023,51.90071996148093,4.1405991030155
Zonnepark A58 Etten-Leur B.V.,0.752,ETTEN-LEUR,Etten-Leur,Noord-Brabant,2020,51.55487953196389,4.638730204572662
"Rivierenland, Waterschap",0.7452,GORINCHEM,Gorinchem,Zuid-Holland,2018,51.83656912033865,5.009639479712426
Zonnepark A58 Etten-Leur B.V.,0.743,ETTEN-LEUR,Etten-Leur,Noord-Brabant,2020,51.56324946320364,4.657892147610859
Waterschap Drents Overijsselse Delta,0.7423,ZWOLLE,Zwolle,Overijssel,2022,52.50842370586482,6.047775596646582
PV Energie Finance Holding III B.V.,0.742,BOVEN-LEEUWEN,West Maas en Waal,Gelderland,2022,51.883216801572104,5.55823356054263
Stichting Waternet,0.74,AMSTERDAM,Amsterdam,Noord-Holland,2020,52.41352048310673,4.801275227148628
Zonnepark A58 Etten-Leur B.V.,0.727,ETTEN-LEUR,Etten-Leur,Noord-Brabant,2020,51.55807324129354,4.651285485136024
PV Energie Finance Holding III B.V.,0.72192,WIERINGERWERF,Hollands Kroon,Noord-Holland,2022,52.83950576096663,5.021550094817619
Waterschap Scheldestromen,0.701,BURGH-HAAMSTEDE,Schouwen-Duiveland,Zeeland,2021,51.68960760018355,3.762255211902002
Waterschap Drents Overijsselse Delta,0.698,ZWOLLE,Zwolle,Overijssel,2024,52.530425588415696,6.17501967173454
Waterschap Zuiderzeeland,0.697,ALMERE,Almere,Flevoland,2018,52.401517457628565,5.2485785307583415
Dijkstra Solar Energy B.V.,0.693,MARRUM,Noardeast-Fryslân,Friesland,2020,53.32738154088429,5.813677739480818
Waterschap Noorderzijlvest,0.692,EELDE,Tynaarlo,Drenthe,2021,53.12690005118563,6.604507093641762
N.V. PWN Waterleidingbedrijf Noord-Holland,0.683,HEEMSKERK,Heemskerk,Noord-Holland,2020,52.50202962201198,4.61981068637819
Waterschap Scheldestromen,0.68,OOSTBURG,Sluis,Zeeland,2022,51.339644146565995,3.502542162751309
Waterschap Vechtstromen,0.67584,HAAKSBERGEN,Haaksbergen,Overijssel,2020,52.17741189723906,6.714589210593182
Waterschap Limburg,0.672,GENNEP,Gennep,Limburg,2019,51.705151977981956,5.963353605620336
"Rivierenland, Waterschap",0.67,HARDINXVELD-GIESSENDAM,Hardinxveld-Giessendam,Zuid-Holland,2019,51.821734265980496,4.836089798653807
Wetterskip Fryslân,0.667,KOOTSTERTILLE,Achtkarspelen,Friesland,2020,53.224606036379775,6.115995573378766
Waterschap Vallei en Veluwe,0.66,EPE,Epe,Gelderland,2021,52.343230543206055,6.00071055651334
Waterschap Vallei en Veluwe,0.65455,BRUMMEN,Brummen,Gelderland,2021,52.093643002689845,6.186008702749804
Hoogheemraadschap van Schieland en de KR.WRD,0.651,CAPELLE AAN DEN IJSSEL,Capelle aan den IJssel,Zuid-Holland,2022,51.91006055086539,4.54290611737394
Zon Hollandse Delta B.V.,0.644,OOSTVOORNE,Voorne aan Zee,Zuid-Holland,2021,51.91798592182752,4.116904844057534
DuurzameENergieHaaren & VET VUght,0.638,HAAREN,Oisterwijk,Noord-Brabant,2020,51.5869425347361,5.225193481572907
Hoogheemraadschap Hollands Noorderkwartier,0.637,WARMENHUIZEN,Schagen,Noord-Holland,2021,52.69603540868024,4.732210852350266
Avri Solar B.V.,0.636,GELDERMALSEN,West Betuwe,Gelderland,2018,51.86621847876276,5.323344341647183
***,0.63071,VORTUM-MULLEM,Land van Cuijk,Noord-Brabant,2020,51.616693785863774,5.990309352252205
Sagax Industrial 50 B.V.,0.6237,HENGELO OV,Hengelo (O),Overijssel,2015,52.2932790282791,6.781034143325364
Zon voor United Soft Drinks B.V.,0.622,GOOR,Hof van Twente,Overijssel,2022,52.24300844131112,6.583313770284566
Waterschap Rivierenland,0.62,GELDERMALSEN,West Betuwe,Gelderland,2019,51.88731138707923,5.2741705520416895
Eierfarm De Zoom B.V.,0.615,WEERT,Weert,Limburg,2022,51.21794280563293,5.69070706362147
Zon op Kralingen B.V.,0.614,ROTTERDAM,Rotterdam,Zuid-Holland,2020,51.90655247438503,4.535436733045263
BEE Greenlight Ommelanderwijk B.V.,0.608,NIEUWE PEKELA,Pekela,Groningen,2020,53.069674278928204,6.933255120949934
Waterschap Vallei en Veluwe,0.605,AMERSFOORT,Soest,Utrecht,2020,52.173828530321764,5.346610404479888
Waterschap Vechtstromen,0.6,RIJSSEN,Rijssen-Holten,Overijssel,2021,52.319177988988706,6.528329220372227
Zonnepark Friesland B.V.,0.6,APPELSCHA,Ooststellingwerf,Friesland,2018,52.93557688838089,6.355728708568799
Vrij Op Naam Zonnepark 1 B.V.,0.59616,UBBENA,Assen,Drenthe,2018,53.05683632120546,6.567824751067088
Hoogheemraadschap van Schieland en de KR.WRD,0.5934,BERGAMBACHT,Krimpenerwaard,Zuid-Holland,2025,51.93960854764086,4.788200101064328
Waterschap Drents Overijsselse Delta,0.59,KAMPEN,Kampen,Overijssel,2022,52.576611501422526,5.87379102691877
Gemeente Texel,0.586,DE KOOG,Texel,Noord-Holland,2020,53.077509671824856,4.773200137199274
Raedthuys Zon B.V.,0.585,DEVENTER,Deventer,Overijssel,2022,52.23311051564426,6.186522154161172
Waterschap Drents Overijsselse Delta,0.583,RAALTE,Raalte,Overijssel,2021,52.39619833133681,6.264428129323569
Zon Hollandse Delta B.V.,0.582,GOEDEREEDE,Goeree-Overflakkee,Zuid-Holland,2021,51.825268960647485,3.995645427665487
Waterschap Limburg,0.573,ROERMOND,Roermond,Limburg,2023,51.22152228732504,5.986327330101809
***,0.55,ZUILICHEM,Zaltbommel,Gelderland,2024,51.80346652959396,5.15438376853307
Waterschap Drents Overijsselse Delta,0.54432,SMILDE,Midden-Drenthe,Drenthe,2021,52.94157502532484,6.454228148620138
Hoogheemraadschap Hollands Noorderkwartier,0.54,WARMENHUIZEN,Schagen,Noord-Holland,2018,52.695779801227516,4.733996846388275
Rundas B.V.,0.531,SINT MAARTENSBRUG,Schagen,Noord-Holland,2022,52.77242919203096,4.723809410820055
Zonnepark PV22 B.V.,0.518,DOKKUM,Noardeast-Fryslân,Friesland,2022,53.330595141638305,5.9856436999798905
Zonnepark Nieuwendijk B.V.,0.506,WERKENDAM,Altena,Noord-Brabant,2023,51.764134779475064,4.926333844011911
Klaverkaas B.V.,0.50505,MIDDENMEER,Hollands Kroon,Noord-Holland,2023,52.757603926692646,5.035802863423696
Nieuw-Oranjepoort,0.503,EMMEN,Emmen,Drenthe,2019,52.74102574371008,6.949744900347023
Zonnepark Molenbosch B.V.,0.5,OLDEBERKOOP,Ooststellingwerf,Friesland,2021,52.9420493628744,6.11382901060066
Zonnepark Molenbosch B.V.,0.5,OLDEBERKOOP,Ooststellingwerf,Friesland,2021,52.942399091444095,6.115654873143203
GLOED Garnwerd,0.5,ZUIDHORN,Westerkwartier,Groningen,2022,53.24813050830926,6.408781023322188
Coöperatie Goed Veur Mekare U.A.,0.5,OLST,Olst-Wijhe,Overijssel,2024,52.32953276881254,6.115795320729159
QEW ENGINEERED RUBBER B.V.,0.499905,HOOGEZAND,Midden-Groningen,Groningen,2021,53.168457032568945,6.7383661612623715
***,0.4995,HAAREN,Oisterwijk,Noord-Brabant,2019,51.602122836759136,5.2076910957105085
***,0.499,BAARLE-NASSAU,Baarle-Nassau,Noord-Brabant,2022,51.453773210258575,4.9712614616655895
***,0.499,VIERLINGSBEEK,Land van Cuijk,Noord-Brabant,2021,51.59164428587457,5.989138966218171
BEE Medel B.V.,0.499,ECHTELD,Neder-Betuwe,Gelderland,2022,51.91885381102139,5.484086697053409
***,0.499,BERGEIJK,Bergeijk,Noord-Brabant,2021,51.310337368163445,5.365192005892811
Waterschap Zuiderzeeland,0.499,ZEEWOLDE,Zeewolde,Flevoland,2018,52.36070362655537,5.508774654694114
E-Quest datacenter diensten B.V.,0.499,HELMOND,Helmond,Noord-Brabant,2019,51.47803765460857,5.619139772500265
Little Sun Eindhoven B.V.,0.499,EINDHOVEN,Eindhoven,Noord-Brabant,2020,51.47004085509827,5.415934293973035
EGP Zon op NL-snelwegen B.V.,0.498,RIJSENHOUT,Haarlemmermeer,Noord-Holland,2020,52.255252665686115,4.6809159480910045
Gemeentehuis Ommen,0.497952,OMMEN,Ommen,Overijssel,2020,52.52666121240423,6.419555612370522
BEE 't Zunneveld B.V.,0.494,HARDENBERG,Hardenberg,Overijssel,2022,52.58047446715793,6.659813184827081
BEE Haarweg B.V.,0.492,WAGENINGEN,Wageningen,Gelderland,2021,51.96557791409473,5.6420128999870265
Zonneweide Bergen B.V.,0.49,BERGEN NH,Bergen (NH),Noord-Holland,2017,52.65856417818095,4.719037375715155
DM-SDE B.V.,0.486,ZUIDBROEK,Midden-Groningen,Groningen,2019,53.16144793079365,6.89203603661579
Sunrock Assets XXX B.V.,0.486,BIDDINGHUIZEN,Dronten,Flevoland,2019,52.42763774573718,5.68911286916062
Sunrock Assets XXX B.V.,0.486,BIDDINGHUIZEN,Dronten,Flevoland,2019,52.42639800892361,5.686670299717085
Kolksluis Solar B.V.,0.483,'T ZAND NH,Schagen,Noord-Holland,2020,52.84640115928297,4.751506978475723
Energie Coöperatie Endona U.A.,0.482,RAALTE,Raalte,Overijssel,2024,52.387599975364935,6.256688994617299
Stichting De ' Griene Greide',0.48,GARYP,Tytsjerksteradiel,Friesland,2017,53.170895291105026,5.993445348630308
Waterschap Drents Overijsselse Delta,0.479,BEILEN,Midden-Drenthe,Drenthe,2021,52.85992363362405,6.4936512956530015
Waterschap Scheldestromen,0.472,THOLEN,Tholen,Zeeland,2022,51.54105577976646,4.231898808463071
Hoogheemraadschap Hollands Noorderkwartier,0.469,DE KOOG,Texel,Noord-Holland,2019,53.07662787278115,4.775051924484008
Waterschap Drents Overijsselse Delta,0.45612,VOLLENHOVE,Steenwijkerland,Overijssel,2021,52.671403996976075,5.948162812626014
Hoogheemraadschap van Schieland en de KR.WRD,0.455,STOLWIJK,Krimpenerwaard,Zuid-Holland,2024,51.980513943779776,4.767413428749723
BCT Energy B.V.,0.446,RIJSBERGEN,Zundert,Noord-Brabant,2024,51.486346879936306,4.730935451539299
Wetterskip Fryslân,0.445,SNEEK,Súdwest-Fryslân,Friesland,2021,53.0227747710909,5.6405527423103905
Duurzaam Kootwijkerbroek Cooperatie U.A.,0.44,KOOTWIJKERBROEK,Barneveld,Gelderland,2024,52.1487303510345,5.653354397968513
Zonnepark Hee B.V.,0.431,HEE,Terschelling,Friesland,2018,53.37680280474417,5.256277750998993
EGP Zon op NL-snelwegen B.V.,0.421,ROTTERDAM,Rotterdam,Zuid-Holland,2020,51.94781628056785,4.513524368443899
Zonnepark Midlum B.V.,0.42,HARLINGEN,Harlingen,Friesland,2021,53.17989019833586,5.461734441234563
Zonnedorpen/Freek Sonneveld,0.416,'T ZAND,Eemsdelta,Groningen,2019,53.363909776541085,6.776954192491729
Waterschap Noorderzijlvest,0.415,WINSUM GN,Het Hogeland,Groningen,2021,53.334286198889686,6.502902854301425
EC Midden-Twente,0.411,AMBT DELDEN,Hof van Twente,Overijssel,2021,52.26546059649496,6.638977921389372
Hof op Rozen,0.411,AMBT DELDEN,Hof van Twente,Overijssel,2021,52.26307025504799,6.637411687805255
EGP Zon op NL-snelwegen B.V.,0.405,BARENDRECHT,Barendrecht,Zuid-Holland,2019,51.86285400397022,4.512200100723787
Waterschap Zuiderzeeland,0.404,DRONTEN,Dronten,Flevoland,2018,52.537342623421516,5.715067526408693
Eco Invest FRL B.V.,0.4,WERGEA,Leeuwarden,Friesland,2018,53.16623337942995,5.831729205965073
Lutten Levert,0.398,LUTTENBERG,Hardenberg,Overijssel,2020,52.610773171754445,6.55206457022901
VrijstadEnergie/Zonneveld de Heuvel,0.395,CULEMBORG,Culemborg,Gelderland,2022,51.935779132070024,5.175083142211728
Waterschap Vechtstromen,0.392,VRIEZENVEEN,Twenterand,Overijssel,2021,52.4076775030354,6.63353527420499
***,0.38763,LELYSTAD,Lelystad,Flevoland,2020,52.47569243523216,5.531347169509965
Wetterskip Fryslân,0.386,AKKRUM,Heerenveen,Friesland,2021,53.04447643316918,5.83497068854834
Zonnepark Hee Fase 2 B.V.,0.386,HEE,Terschelling,Friesland,2021,53.37666191972201,5.255792859445618
Zonnepark Fieldlab B.V.,0.378,NIEUW-DORDRECHT,Emmen,Drenthe,2020,52.742359764217305,6.963101625976276
Wetterskip Fryslân,0.374,DOKKUM,Noardeast-Fryslân,Friesland,2020,53.3216144531941,6.020832271557456
Plantenkwekerij Rob van Vegchel B.V.,0.37,AMERICA,Horst aan de Maas,Limburg,2022,51.43727267815115,6.005493810617472
Waterschap Hunze en Aa's,0.37,GIETEN,Aa en Hunze,Drenthe,2019,53.0162095909095,6.7757586326825905
Endona Projecten B.V.,0.364,HEETEN,Raalte,Overijssel,2018,52.334545496149,6.2890992319046966
Waterschap Vallei en Veluwe,0.361,WOUDENBERG,Woudenberg,Utrecht,2021,52.0880601252795,5.446837540210198
Gemeente Medemblik,0.36,WOGNUM,Medemblik,Noord-Holland,2021,52.68696794332485,5.029303571142723
Zon Hollandse Delta B.V.,0.354,NUMANSDORP,Hoeksche Waard,Zuid-Holland,2021,51.72444924663409,4.419691537291558
***,0.353275,DWINGELOO,Westerveld,Drenthe,2020,52.82796740821994,6.388092760662324
EnergieU,0.353,UTRECHT,Utrecht,Utrecht,2023,52.113664709053346,5.036145870286356
Kwekerij De Noordhoek B.V.,0.35,KAPELLE,Kapelle,Zeeland,2021,51.46942123616351,3.94862953249502
Gemeente Alkmaar,0.35,ALKMAAR,Alkmaar,Noord-Holland,2020,52.633105854755236,4.7121906347288505
Energiecoöperatief De Groene Wieken U.A.,0.35,HOOGEVEEN,Hoogeveen,Drenthe,2024,52.71236799904209,6.593978472829958
Waterschap Limburg,0.336,STEIN LB,Stein,Limburg,2023,50.974843373519995,5.752330044648436
Wieskamp Solar B.V.,0.33,WINTERSWIJK HENXEL,Winterswijk,Gelderland,2020,51.98807364157804,6.74327142385206
Waterschap Limburg,0.327,VENRAY,Venray,Limburg,2018,51.55105928457457,5.98759615469328
Mathijssen Herveld B.V.,0.32,HERVELD,Overbetuwe,Gelderland,2022,51.91337638527802,5.7532381983544685
Helena Sustainable Innovations B.V.,0.32,'S-GRAVENHAGE,'s-Gravenhage,Zuid-Holland,2020,52.08403691297901,4.35314623157598
Waterschap Scheldestromen,0.311,SINT-MAARTENSDIJK,Tholen,Zeeland,2021,51.55466688713729,4.07363207872643
AGEM Gemeentelijke Energie B.V.,0.308,BRAAMT,Montferland,Gelderland,2023,51.92279965881431,6.267881395011273
Waterschap Hunze en Aa's,0.308,STADSKANAAL,Stadskanaal,Groningen,2019,53.01251396297402,6.955031266508865
Waterschap Limburg,0.304,MEIJEL,Peel en Maas,Limburg,2024,51.34870051252302,5.8694758208518465
Waterschap Vallei en Veluwe,0.302,HEERDE,Heerde,Gelderland,2021,52.391234407793746,6.05390951690857
Waterschap Scheldestromen,0.301,BRUINISSE,Schouwen-Duiveland,Zeeland,2022,51.63278325804088,4.063783071476584
"Rivierenland, Waterschap",0.297,SLIEDRECHT,Sliedrecht,Zuid-Holland,2022,51.832194110057124,4.799175370711659
De Groene Stroom,0.297,BARENDRECHT,Barendrecht,Zuid-Holland,2023,51.840974587265706,4.5174180948114815
De Heufkens B.V.,0.293,POEDEROIJEN,Zaltbommel,Gelderland,2025,51.79297163755595,5.094401176952818
Hoogheemraadschap van Schieland en de KR.WRD,0.285,CAPELLE AAN DEN IJSSEL,Capelle aan den IJssel,Zuid-Holland,2022,51.929557258877594,4.602873224525082
BE Lacustris B.V.,0.278,MIDDENMEER,Hollands Kroon,Noord-Holland,2020,52.773789286230425,5.058840574345376
Waterschap Vallei en Veluwe,0.276,OVERBERG,Utrechtse Heuvelrug,Utrecht,2021,52.03948955687193,5.52440736674509
Waterschap Noorderzijlvest,0.273,ONDERDENDAM,Het Hogeland,Groningen,2021,53.32660413817898,6.591196681085664
Laan Flora Facilities B.V.,0.27,ZWAAGDIJK-OOST,Medemblik,Noord-Holland,2019,52.70752508205378,5.14456540823743
Rotterdamse Energiecoöperatie,0.264,RHOON,Albrandswaard,Zuid-Holland,2019,51.865457336323914,4.446261019680958
Hoogheemraadschap De Stichtse Rijnlanden,0.26,GROENEKAN,De Bilt,Utrecht,2016,52.119548497990024,5.173952008706256
Wetterskip Fryslân,0.257,SLOTEN FR,De Fryske Marren,Friesland,2020,52.90241397622158,5.63946533041542
Zonnepark A58 Etten-Leur B.V.,0.253,ETTEN-LEUR,Etten-Leur,Noord-Brabant,2020,51.553081249632484,4.625120112842846
Hoogheemraadschap Hollands Noorderkwartier,0.25164,DEN OEVER,Hollands Kroon,Noord-Holland,2019,52.92811713098806,5.032427259117362
Brabant Water N.V.,0.25,ZEVENBERGEN,Moerdijk,Noord-Brabant,2021,51.6589414706557,4.610877439417577
Tennet Tso B.V.,0.25,GRONINGEN,Groningen,Groningen,2025,53.2123836468039,6.475073939061552
Wetterskip Fryslân,0.248,BURDAARD,Noardeast-Fryslân,Friesland,2020,53.29795308117818,5.884869812155098
Energie Cooperatie Vorden U.A.,0.243,VORDEN,Bronckhorst,Gelderland,2022,52.10168903279187,6.300310262349387
Waterschap Zuiderzeeland,0.24,LELYSTAD,Lelystad,Flevoland,2020,52.5052258199174,5.43285313506221
Stichting Landgoed De Commel,0.24,ECHT,Echt-Susteren,Limburg,2021,51.096166021689704,5.869389531889881
Duurzame Energie Coöperatie Dommelstroom U.A.,0.24,BOXTEL,Boxtel,Noord-Brabant,2024,51.608119731216526,5.326552128191316
Zonnepark Maassluis B.V.,0.24,MAASSLUIS,Maassluis,Zuid-Holland,2019,51.907602275188125,4.2703478675113535
Waterschap Vallei en Veluwe,0.231,SOEST,Soest,Utrecht,2021,52.19366625464984,5.298750792331114
Waterschap Limburg,0.22557,KERKRADE,Kerkrade,Limburg,2018,50.883799855404355,6.048109588531496
Waterschap Vechtstromen,0.22464,VROOMSHOOP,Twenterand,Overijssel,2020,52.44700920136017,6.564361086393354
Duurzaam Menterwolde,0.216,ZUIDBROEK,Midden-Groningen,Groningen,2018,53.16134153271325,6.890926966880991
De Wintertuin B.V.,0.210909,DE LIER,Westland,Zuid-Holland,2020,51.98554491087804,4.283012555073681
N.V. PWN Waterleidingbedrijf Noord-Holland,0.201,HEEMSKERK,Heemskerk,Noord-Holland,2020,52.505444497100235,4.600740835222431
Coöperatieve Vereniging Solar Green Point Haarlemmermeer U.A.,0.2,RIJSENHOUT,Haarlemmermeer,Noord-Holland,2020,52.25477261313869,4.680258212373092
Waterschap Drents Overijsselse Delta,0.2,MEPPEL,Meppel,Drenthe,2022,52.71108927615449,6.194597403282286
Roeleveld-Rolink B.V.,0.2,DENEKAMP,Dinkelland,Overijssel,2024,52.386628371224106,7.018403920227239
Leudal Energie (Duurzame Energie Coöperatie Leudal U.A.),0.2,NUNHEM,Leudal,Limburg,2024,51.23990964567112,5.9635105585941535
Huls Duurzame Energie Vastgoed B.V.,0.2,WINTERSWIJK RATUM,Winterswijk,Gelderland,2017,51.98073245471224,6.785785896940138
SoReJa B.V.,0.2,MELDERSLO,Horst aan de Maas,Limburg,2020,51.472999290386376,6.087061099661997
Wetterskip Fryslân,0.198,BROEK FR,De Fryske Marren,Friesland,2021,52.97217779931577,5.763311586871001
Zeeuwind,0.193,MIDDELBURG,Middelburg,Zeeland,2018,51.47757389957329,3.6214048582753864
Waterschap Drents Overijsselse Delta,0.193,ROGAT,Meppel,Drenthe,2018,52.68926497868627,6.257071318662626
Waterschap Vechtstromen,0.186,ALMELO,Almelo,Overijssel,2021,52.365733311069256,6.65039930783683
Walter Grootscholten B.V.,0.1815,DE LIER,Westland,Zuid-Holland,2023,51.98842524082665,4.278455095248384
Timmerfabriek Van der Vegt B.V.,0.18144,DALFSEN,Dalfsen,Overijssel,2021,52.52676912600366,6.324161417052818
Gemeentehuis Ommen,0.18,OMMEN,Ommen,Overijssel,2022,52.52622325297929,6.420452671084089
Gemeente Landgraaf,0.18,LANDGRAAF,Landgraaf,Limburg,2022,50.911428604551205,6.035321329249937
waterschap Hoogheemraadschap De Stichtse Rijnlanden,0.177,UTRECHT,Utrecht,Utrecht,2023,52.11381648380848,5.035742983333344
DeventerEnergie,0.176,DEVENTER,Deventer,Overijssel,2023,52.25590481030627,6.173372903599021
Duurzaam Menterwolde,0.174,ZUIDBROEK,Midden-Groningen,Groningen,2019,53.16115204305189,6.890953765958506
Groenkracht Groenlo,0.169,GROENLO,Oost Gelre,Gelderland,2022,52.04676994691576,6.609668108919082
Waterschap Scheldestromen,0.166,BRESKENS,Sluis,Zeeland,2021,51.38439932388708,3.5852388757529234
Provincie Utrecht,0.158,MAARTENSDIJK,De Bilt,Utrecht,2021,52.150805360432095,5.160375166656609
BergenEnergie,0.157,BERGEN (NH),Bergen (NH),Noord-Holland,2016,52.65858480085384,4.717884328304982
Waterschap Noorderzijlvest,0.156,FARMSUM,Eemsdelta,Groningen,2021,53.30712190797655,6.951353393959726
Wetterskip Fryslân,0.1558,BOLSWARD,Súdwest-Fryslân,Friesland,2025,53.075133292558476,5.524416566134858
Waterschap Vallei en Veluwe,0.1521,BENNEKOM,Ede,Gelderland,2021,51.99776026096501,5.658233167061347
Waterschap Zuiderzeeland,0.15052,BIDDINGHUIZEN,Dronten,Flevoland,2019,52.37119085493946,5.616280308414714
Waterschap Drents Overijsselse Delta,0.15,GENEMUIDEN,Zwartewaterland,Overijssel,2023,52.60466095940467,6.060821188660568
Energie Cooperatief West (Terschelling),0.15,WEST-TERSCHELLING,Terschelling,Friesland,2019,53.37243647738779,5.2424040223
HMO,0.147,HENGELO OV,Hengelo (O),Overijssel,2023,52.247960727394904,6.769874817546989
Waterschap Noorderzijlvest,0.142,WEHE-DEN HOORN,Het Hogeland,Groningen,2021,53.36789029395637,6.414481820034526
Waterschap Brabantse Delta,0.141,NIEUW-VOSSEMEER,Steenbergen,Noord-Brabant,2021,51.57377812811286,4.2195689174663356
***,0.138,DEDEMSVAART,Hardenberg,Overijssel,2014,52.597860801299994,6.447557477366934
Waterschap Drents Overijsselse Delta,0.1368,HEINO,Raalte,Overijssel,2021,52.44077541042307,6.201830332669071
Duurzaam Menterwolde,0.136,ZUIDBROEK,Midden-Groningen,Groningen,2022,53.161157968631684,6.891973755361732
Zonnepark Halo Langelo B.V.,0.133,LANGELO DR,Noordenveld,Drenthe,2020,53.089718785862495,6.4293008563122696
Alkmaar Energie,0.133,ALKMAAR,Alkmaar,Noord-Holland,2023,52.64548008871105,4.74036307776209
EVHB/projectcöperatie Korenstreep,0.132,VEGHEL,Meierijstad,Noord-Brabant,2018,51.63805398048802,5.566040819122523
N.V. PWN Waterleidingbedrijf Noord-Holland,0.13108,HOOFDDORP,Haarlemmermeer,Noord-Holland,2020,52.32690785359237,4.659647187689563
Benedictinessen (OSB),0.13,OOSTERHOUT NB,Oosterhout,Noord-Brabant,2023,51.642113605033956,4.870749405492331
King 3 Investments B.V.,0.13,DRIMMELEN,Drimmelen,Noord-Brabant,2023,51.707008657301515,4.823207120664556
Enschede Energie,0.128,ENSCHEDE,Enschede,Overijssel,2023,52.204176028281935,6.91972407965307
Eerste Kwartier Gebiedsontwikkeling Spoorzon B.V.,0.1245,DEVENTER,Deventer,Overijssel,2023,52.25607876072493,6.174005508532898
Rythovius College,0.12,EERSEL,Eersel,Noord-Brabant,2016,51.3634267985671,5.314753065732048
E-Lekstroom,0.119,NIEUWEGEIN,Nieuwegein,Utrecht,2018,52.060937947476965,5.077858763858509
Solarpark Galecop B.V.,0.119,NIEUWEGEIN,Nieuwegein,Utrecht,2019,52.06127629684806,5.077910701441773
EC Oldemarkt,0.117,OLDEMARKT,Steenwijkerland,Overijssel,2020,52.82255222641961,5.965822688646658
Waterschap Drents Overijsselse Delta,0.115,DALFSEN,Dalfsen,Overijssel,2021,52.509709727613966,6.236842662205387
Digital Invest Emmeloord B.V.,0.11,ASSEN,Assen,Drenthe,2018,53.025583592333525,6.56374434633174
Waterschap Limburg,0.106,MEIJEL,Peel en Maas,Limburg,2018,51.34879841713464,5.86981364938427
Wetterskip Fryslân,0.1046,GROU,Leeuwarden,Friesland,2025,53.09207405298687,5.818072189614339
Hoogheemraadschap van Schieland en de KR.WRD,0.1,BERKENWOUDE,Krimpenerwaard,Zuid-Holland,2025,51.93570271123788,4.7113170653946845
Erve Oostwold,0.1,OOSTWOLD GEM OLDAMBT,Oldambt,Groningen,2015,53.20131322266488,7.034763247467219
Subtropisch Zwemparadijs Aqualaren,0.1,PATERSWOLDE,Tynaarlo,Drenthe,2018,53.14651880359707,6.572298541972716
Morsink Vleesvarkens B.V.,0.1,AMBT DELDEN,Hof van Twente,Overijssel,2018,52.284169369556494,6.672429148878294
Waterschap Noorderzijlvest,0.095,LEEK,Westerkwartier,Groningen,2022,53.15199868044834,6.369285180493531
Waterschap Noorderzijlvest,0.094,FEERWERD,Westerkwartier,Groningen,2021,53.30322865195284,6.479148481360204
Ooghduyne Vastgoed B.V.,0.09222,JULIANADORP,Den Helder,Noord-Holland,2018,52.892948615055865,4.729166132018953
DeventerEnergie,0.089,DEVENTER,Deventer,Overijssel,2023,52.255960848088655,6.173341404443773
***,0.08,BRUMMEN,Brummen,Gelderland,2019,52.11531430888339,6.150299275325944
Stichting St. Josephhuis Casa Carmeli,0.0778,VOGELENZANG,Bloemendaal,Noord-Holland,2018,52.327503586985294,4.580357087535627
EC Gaasterland,0.075,LEMMER,De Fryske Marren,Friesland,2023,52.852488761124434,5.663001136931393
***,0.07497,MONSTER,Westland,Zuid-Holland,2015,52.02392149345406,4.197277018657974
Gemeente Alphen aan den Rijn,0.07434,ALPHEN AAN DEN RIJN,Alphen aan den Rijn,Zuid-Holland,2019,52.14281425669508,4.630428519911425
Waterschap Hunze en Aa's,0.07392,VEENDAM,Veendam,Groningen,2019,53.10305870570029,6.900836025783917
Waterschap Hunze en Aa's,0.07392,WOLDENDORP,Eemsdelta,Groningen,2019,53.26270228742004,6.975619799476551
EC Noordseveld,0.073,PEIZE,Noordenveld,Drenthe,2020,53.14419011140581,6.486447393020385
***,0.065,LAREN GLD,Lochem,Gelderland,2020,52.17078350932889,6.342492000926073
Gemeente Texel,0.061995,DEN BURG,Texel,Noord-Holland,2018,53.04875249494863,4.805029232449608
Gemeente Medemblik,0.06,WOGNUM,Medemblik,Noord-Holland,2019,52.68591185209706,5.029414218385266
Waterschap Hunze en Aa's,0.06,TER APEL,Westerwolde,Groningen,2019,52.888029685046895,7.097788160538997
Solar Green Point/ A20 terbregge,0.059,TERBREGGE,Rotterdam,Zuid-Holland,2019,51.949371557982175,4.5201122273538905
Solar Green Point/ A20 terbregge,0.057,TERBREGGE,Rotterdam,Zuid-Holland,2016,51.94886665836798,4.5181598516892265
Harry van Keulen Holding B.V.,0.053,NIJVERDAL,Hellendoorn,Overijssel,2019,52.365406437331146,6.4923972723864045
N.V. Waterbedrijf Groningen,0.0481,EENRUM,Het Hogeland,Groningen,2022,53.35620882306412,6.464287344483575
N.V. Waterbedrijf Groningen,0.0481,OOSTWOLD GEM OLDAMBT,Oldambt,Groningen,2022,53.203472803857665,7.046411087813884
Endona,0.048,HEETEN,Raalte,Overijssel,2022,52.38654253865345,6.2567916741226925
***,0.028,DWINGELOO,Westerveld,Drenthe,2019,52.8245458434842,6.3898533482936895
Stadsherstel Amsterdam N.V.,0.0276,NIEUW-VENNEP,Haarlemmermeer,Noord-Holland,2020,52.25490939467585,4.618531170581231
Waterschap Hunze en Aa's,0.02464,VRIESCHELOO,Westerwolde,Groningen,2019,53.06283746697654,7.128049908578626
Waterschap Hunze en Aa's,0.02464,FOXHOL,Midden-Groningen,Groningen,2019,53.16659367967587,6.710322433455097
Waterschap Hunze en Aa's,0.01848,2E EXLOERMOND,Borger-Odoorn,Drenthe,2019,52.917233419355426,6.94990345278205
